rtr_id,rtr_name,rtr_addr,rtr_price,rtr_type,rtr_longitude,rtr_latitude,geometry,district
10023,大盛日本料理,新蒲崗宁远街越秀广场G25-27号,$101-200,日本菜,114.20083500000001,22.331087,POINT (114.200835 22.331087),黄大仙区
100388,定安小馆茶餐厅,牛頭角定安街90-92号地下,$50以下,港式,114.220823,22.314576000000002,POINT (114.220823 22.314576),观塘区
100521,京都居食屋,大角咀大全街34号,$51-100,日本菜,114.166009,22.319289,POINT (114.166009 22.319289),油尖旺区
100584,天际轩,鑽石山牛池湾丰盛街51号天际会所峻弦38楼,$101-200,多国菜,114.206896,22.337995000000003,POINT (114.206896 22.337995),黄大仙区
100906,明发鸡煲之家,牛頭角联安街17号,$51-100,港式,114.14859799999999,22.496742,POINT (114.148598 22.496742),北区
10117,玛哈巴,尖沙咀诺士佛台12号耀邦大厦地下,$201-400,土耳其菜,114.17911399999998,22.298544,POINT (114.179114 22.298544),油尖旺区
10148,荣发粉面专家,紅磡必嘉街88号,$50以下,港式,114.189897,22.303539999999998,POINT (114.189897 22.30354),九龙城区
101818,金仔米线,長沙灣元州邨元州商场地下8号舖,$50以下,滇菜 (云南),0.0,0.0,POINT (0 0),None
101832,帕维亚意大利餐厅,九龍城打鼓岭道85号地下,$201-400,意大利菜,114.19632,22.327507999999998,POINT (114.19632 22.327508),九龙城区
102168,BRICK LANE Gallery,尖沙咀棉登径17-23号地下,$101-200,英国菜,114.17988400000002,22.294110999999997,POINT (114.179884 22.294111),油尖旺区
102224,友乐亭炉端烧居酒屋,美孚美孚新邨恒柏道2-8号地舖,$101-200,日本菜,114.14481,22.336159,POINT (114.14481 22.336159),深水埗区
102238,来多客,黃大仙环凤街40-44号A-B地舖,$50以下,港式,114.203309,22.34114,POINT (114.203309 22.34114),黄大仙区
102280,吉吉鱼蛋,美孚美孚新邨万事达商场地下78号舖,$50以下,港式,0.0,0.0,POINT (0 0),None
10262,Promenade 西餐厅,紅磡都会道7号都会海逸酒店7楼,$401-800,多国菜,114.18831999999999,22.29849,POINT (114.18832 22.29849),油尖旺区
102653,富城火锅海鲜酒家,黃大仙环凤街33号凤祥楼全层,$50以下,粤菜 (广东),114.203078,22.341506,POINT (114.203078 22.341506),黄大仙区
10304,大家食,深水埗福荣街80号地下,$50以下,港式,114.168011,22.32901,POINT (114.168011 22.32901),深水埗区
103136,聚手工火锅,尖沙咀金巴利道45至47号金巴利广场1楼,$201-400,粤菜 (广东)、日本菜,114.17911200000002,22.298275,POINT (114.179112 22.298275),油尖旺区
1036,麦当劳,土瓜灣马头围道207-211号海悦广场地下1号舖,$50以下,美国菜,114.192678,22.318748,POINT (114.192678 22.318748),九龙城区
10362,金泰烧烤,九龍城太子道西386A-B,$51-100,泰国菜,114.18999,22.307752,POINT (114.18999 22.307752),九龙城区
104069,至尊重庆鸡煲 (创兴广场),旺角弥敦道593-601号创兴广场16楼,$101-200,川菜 (四川),114.1748,22.31356,POINT (114.1748 22.31356),油尖旺区
10414,刘森记面家,深水埗桂林街48号地下,$50以下,港式,114.168012,22.32945,POINT (114.168012 22.32945),深水埗区
104559,金利来小厨,九龍灣宏照道23 号地下,$50以下,港式,114.21054,22.328672,POINT (114.21054 22.328672),观塘区
104713,翠华餐厅,牛頭角励业街50号地下至1楼,$51-100,港式,114.22275400000001,22.311481,POINT (114.222754 22.311481),观塘区
104720,银咖哩 (九龙城广场),九龍城贾炳达道128号九龙城广场地库116号舖,$50以下,日本菜,114.192823,22.328094,POINT (114.192823 22.328094),九龙城区
105277,花园茶座,土瓜灣九龙城道199号8度海逸酒店2楼,$51-100,多国菜,114.195503,22.320101,POINT (114.195503 22.320101),九龙城区
105298,池畔廊,土瓜灣九龙城道199号8度海逸酒店2楼,$51-100,多国菜,114.195503,22.320101,POINT (114.195503 22.320101),九龙城区
105557,争鲜外带寿司,大角咀港铁奥运站9号舖,$50以下,日本菜,114.16879899999999,22.317055,POINT (114.168799 22.317055),油尖旺区
105564,争鲜外带寿司,牛頭角港铁牛头角站10号舖,$50以下,日本菜,114.22381599999999,22.312761,POINT (114.223816 22.312761),观塘区
10561,景霖正宗四川麻辣米线 (白加士街),佐敦白加士街17号伯嘉士大厦地下,$50以下,川菜 (四川),114.175481,22.301153,POINT (114.175481 22.301153),油尖旺区
105970,左麟右李粥面小菜专门店,紅磡黄埔天地美食坊(第8期)1楼110-111号舖,$51-100,港式,0.0,0.0,POINT (0 0),None
106187,新泉外卖专门店,大角咀必发道7号地下,$50以下,港式,114.169924,22.319205,POINT (114.169924 22.319205),油尖旺区
10636,唯珍上海面家,佐敦白加士街125号地下,$50以下,沪菜 (上海),114.17581000000001,22.304103,POINT (114.17581 22.304103),油尖旺区
106362,盈晖海鲜酒家,荔枝角长沙湾道833号长沙湾广场2楼210舖,$51-100,粤菜 (广东),114.153465,22.334641,POINT (114.153465 22.334641),深水埗区
106383,厚兴瑜记手撕鸡,慈雲山毓华街23号慈云山中心地下好运街市62号舖,$51-100,粤菜 (广东),114.205549,22.345856,POINT (114.205549 22.345856),黄大仙区
10661,大有食堂,新蒲崗大有街34号新科技广场地下3号舖,$50以下,港式,114.202168,22.333654,POINT (114.202168 22.333654),黄大仙区
106691,景福餐厅,新蒲崗景福街81号地下,$50以下,港式,114.202366,22.331657,POINT (114.202366 22.331657),黄大仙区
106733,满江红小甜甜,旺角登打士街32-34A欧美广场UG层,$101-200,川菜 (四川),114.17430900000001,22.312367000000002,POINT (114.174309 22.312367),油尖旺区
106747,东海粥店,佐敦上海街106号地下,$50以下,港式,114.17440900000001,22.303064000000003,POINT (114.174409 22.303064),油尖旺区
10680,兴记菜馆,"油麻地庙街12, 14, 15, 17, 19号地下",$51-100,粤菜 (广东),114.18055,22.303967999999998,POINT (114.18055 22.303968),油尖旺区
10687,极滋味食阶,土瓜灣土瓜湾道327号地下,$50以下,港式,114.196036,22.314875,POINT (114.196036 22.314875),九龙城区
107006,品越越式料理 (奥海城),大角咀海泓道1号奥海城三期地下G30号舖,$51-100,越南菜,114.167259,22.314877,POINT (114.167259 22.314877),油尖旺区
107034,A+食屋,慈雲山毓华里慈祥大厦地下4号舖,$50以下,港式,114.206601,22.343598999999998,POINT (114.206601 22.343599),黄大仙区
107048,金翠餐厅,太子荔枝角道68号地下,$51-100,港式,114.171489,22.32139,POINT (114.171489 22.32139),油尖旺区
107097,西川风味餐厅,慈雲山毓华里18号慈华商场地下2-3号,$101-200,川菜 (四川),114.206994,22.343822,POINT (114.206994 22.343822),黄大仙区
10719,马华餐厅,佐敦佐敦道12号耀棠阁地下,$51-100,新加坡菜、马来西亚菜,114.177224,22.302681,POINT (114.177224 22.302681),油尖旺区
107223,德美寿司,紅磡黄埔新村德民街31号地下1B号舖,$101-200,日本菜,114.19313799999999,22.303245999999998,POINT (114.193138 22.303246),九龙城区
107251,星域酒廊,大角咀大角咀道86号九龙珀丽酒店30楼,$101-200,多国菜,114.16713999999999,22.318285999999997,POINT (114.16714 22.318286),油尖旺区
107258,协奏坊西餐厅,大角咀大角咀道86号九龙珀丽酒店2楼,$201-400,多国菜,114.16713999999999,22.318285999999997,POINT (114.16714 22.318286),油尖旺区
107300,百宝堂,油麻地庙街134号地下,$50以下,港式,114.18055,22.303967999999998,POINT (114.18055 22.303968),油尖旺区
10757,Aqua,尖沙咀北京道1号29楼,$401-800,日本菜、意大利菜,114.17481299999999,22.293274,POINT (114.174813 22.293274),油尖旺区
10766,哥登堡餐厅,土瓜灣马头围道440号地下,$51-100,西式,114.19230800000001,22.316906,POINT (114.192308 22.316906),九龙城区
107916,Three on Canton,尖沙咀广东道13号海港城港威酒店3楼,$401-800,多国菜,114.177357,22.2932,POINT (114.177357 22.2932),油尖旺区
10807,H&#228;agen-Dazs,九龍塘达之路80号又一城L1层16号舖,$51-100,西式,114.17943400000001,22.334584,POINT (114.179434 22.334584),深水埗区
108499,McCafe,何文田佛光街80号何文田广场3楼319号舖,$50以下,美国菜,114.1866,22.313828,POINT (114.1866 22.313828),九龙城区
108520,谭仔云南米线,荔枝角长沙湾道833号长沙湾广场2楼211号舖,$50以下,滇菜 (云南),114.153465,22.334641,POINT (114.153465 22.334641),深水埗区
108548,川味美食,長沙灣青山道272号地下,$50以下,川菜 (四川),114.162504,22.33507,POINT (114.162504 22.33507),深水埗区
108807,东星餐厅,九龍城侯王道33号地下,$50以下,西式,114.19351999999999,22.325817,POINT (114.19352 22.325817),九龙城区
10887,谭仔三哥米线,深水埗福荣街107号地下,$50以下,滇菜 (云南),114.168051,22.328878,POINT (114.168051 22.328878),深水埗区
10918,坤记糕品专家,深水埗福华街115-117号北河商场地下10号舖 (北河街交界),$50以下,粤菜 (广东),114.168291,22.327867,POINT (114.168291 22.327867),深水埗区
10921,麻辣川米线,長沙灣元州街213号美居中心商场地下22号舖,$50以下,川菜 (四川),114.16503999999999,22.331923,POINT (114.16504 22.331923),深水埗区
10922,云南风味过桥小锅米綫,深水埗营盘街134号元安大厦地下,$50以下,滇菜 (云南),114.168493,22.329606,POINT (114.168493 22.329606),深水埗区
109458,肯德基家乡鸡 (KFC),荔枝角长沙湾道833号长沙湾广场2楼212至215号舖,$50以下,美国菜,114.153465,22.334641,POINT (114.153465 22.334641),深水埗区
109759,金泰美食,九龍城打鼓岭道15号地下,$51-100,泰国菜,114.19627,22.325864000000003,POINT (114.19627 22.325864),九龙城区
10986,周记油渣面,深水埗福荣街117号地下,$50以下,粤菜 (广东),114.16788100000001,22.328995000000003,POINT (114.167881 22.328995),深水埗区
110202,富临酒家,長沙灣长沙湾道681号贸易广场地下及一楼2号舖,$101-200,粤菜 (广东),114.159264,22.334185,POINT (114.159264 22.334185),深水埗区
110356,麦当劳,土瓜灣马头围道418号乐意居地下1号舖及1楼,$50以下,美国菜,114.19228600000001,22.316239000000003,POINT (114.192286 22.316239),九龙城区
110363,麦当劳,油麻地弥敦道518-520号弥敦行地下A及C舖,$50以下,美国菜,114.18055,22.303967999999998,POINT (114.18055 22.303968),油尖旺区
110552,益源香港仔鱼蛋王,新蒲崗康强街55号地下,$50以下,港式,114.20147,22.331478,POINT (114.20147 22.331478),黄大仙区
11071,新耀荣粥店,長沙灣青山道310号地下,$50以下,港式,114.16166100000001,22.335589000000002,POINT (114.161661 22.335589),深水埗区
11088,饺子妹上海云吞面,美孚美孚新邨第七期万事达广场地舖,$50以下,沪菜 (上海),114.143977,22.335285,POINT (114.143977 22.335285),深水埗区
110888,夏面馆,樂富联合道198号乐富广场3楼3125至3126舖,$51-100,沪菜 (上海),114.191116,22.335144,POINT (114.191116 22.335144),九龙城区
110895,亚南鸡煲,太子花园街211号地下,$101-200,川菜 (四川)、东北菜,0.0,0.0,POINT (0 0),None
110965,McCafe,牛頭角牛头角道77号淘大花园商场第二期地下G246-253号舖,$50以下,美国菜,114.22090700000001,22.321123999999998,POINT (114.220907 22.321124),观塘区
110993,McCafe,"荔枝角深盛路9号宇晴汇2楼13A, 15及16号舖",$50以下,美国菜,114.154721,22.332008,POINT (114.154721 22.332008),深水埗区
111021,McCafe,鑽石山龙蟠街3号荷里活广场2楼216号舖,$50以下,美国菜,114.206896,22.337995000000003,POINT (114.206896 22.337995),黄大仙区
111035,McCafe,荔枝角荔枝角道一号嘉业大厦一楼及地下,$50以下,美国菜,114.173432,22.319322,POINT (114.173432 22.319322),油尖旺区
11108,美味食店,太子水渠道30-32号A美星楼地下10号舖,$50以下,港式,114.195528,22.325362,POINT (114.195528 22.325362),九龙城区
111504,琛记粉面,土瓜灣谭公道50号德胜大厦地下5号舖,$50以下,港式,114.19344699999999,22.319508,POINT (114.193447 22.319508),九龙城区
11178,多多饼店,美孚美孚新邨百老汇街65号地舖,$50以下,港式,114.145752,22.333586999999998,POINT (114.145752 22.333587),深水埗区
11206,小男孩,美孚美孚新村第4期美孚广场212-216号舖,$101-200,荷兰菜,114.146451,22.333263,POINT (114.146451 22.333263),深水埗区
112318,朗逸餐厅,佐敦南京街30号朗逸酒店1楼,$50以下,西式,114.177425,22.30358,POINT (114.177425 22.30358),油尖旺区
11256,梁山泊日本料理,"紅磡都会道6-10号置富都会7楼767B,768B,769-771号舖",$101-200,日本菜,114.18818799999998,22.299988,POINT (114.188188 22.299988),油尖旺区
112899,萨莉亚意式餐厅 (得宝花园),牛頭角牛头角道3号得宝花园商场1楼R1号舖,$51-100,意大利菜,114.219545,22.324479999999998,POINT (114.219545 22.32448),观塘区
11291,合益泰小食,深水埗桂林街121号地舖,$50以下,港式,114.166219,22.327748,POINT (114.166219 22.327748),深水埗区
11292,八仙饼家,深水埗南昌街197号地下,$50以下,港式,114.169858,22.328529999999997,POINT (114.169858 22.32853),深水埗区
11293,金华冰厅,太子弼街47号地舖,$50以下,港式,114.17477,22.319554999999998,POINT (114.17477 22.319555),油尖旺区
112990,海景粥店茶餐厅,九龍城福佬村道12号,$51-100,港式,114.19259199999999,22.325348,POINT (114.192592 22.325348),九龙城区
113081,伟城粥面店,牛頭角安华街2-8号A1号舖,$50以下,港式,114.219293,22.323278,POINT (114.219293 22.323278),观塘区
11321,好时沙嗲,尖沙咀麽地道63号好时中心144-148号舖,$51-100,新加坡菜,0.0,0.0,POINT (0 0),None
113328,星巴克咖啡,荔枝角荔枝角道833号昇悦居1楼101号舖,$50以下,美国菜,114.154326,22.331281,POINT (114.154326 22.331281),深水埗区
113608,稻香 (爱民广场),何文田忠孝街60号爱民广场1楼F27及F28号舖,$101-200,粤菜 (广东),114.183816,22.309036,POINT (114.183816 22.309036),九龙城区
11401,点点绿,美孚港铁美孚站MEF1号舖,$50以下,多国菜,0.0,0.0,POINT (0 0),None
11405,富临皇宫,美孚美孚新邨百老汇街85号地下C舖,$101-200,粤菜 (广东),114.145991,22.333775,POINT (114.145991 22.333775),深水埗区
11408,居食屋「和民」 (黄埔天地时尚坊),紅磡黄埔天地时尚坊(第2期)地库B9-10号舖,$101-200,日本菜,0.0,0.0,POINT (0 0),None
11409,名宝石餐厅,太子太子道西148号地下,$101-200,西式,114.195528,22.325362,POINT (114.195528 22.325362),九龙城区
114210,潮江卤水,慈雲山毓华街23号慈云山中心2楼慈云山街市44号舖,$50以下,潮州菜,114.205549,22.345856,POINT (114.205549 22.345856),黄大仙区
114555,89,深水埗钦州街37号西九龙中心8楼美食广场9号舖,$50以下,港式,114.16471200000001,22.328345000000002,POINT (114.164712 22.328345),深水埗区
114723,肯德基家乡鸡 (KFC),何文田忠孝街60号爱民广场1楼F11及F12号舖,$50以下,美国菜,114.183816,22.309036,POINT (114.183816 22.309036),九龙城区
11502,顺兴隆桂记荳品厂,長沙灣顺宁道451号地舖,$50以下,港式,114.161024,22.336592,POINT (114.161024 22.336592),深水埗区
115150,牧羊少年咖啡馆 (白杨街),太子白杨街27-29号嘉安大厦地下1号舖,$101-200,西式,114.172591,22.325096,POINT (114.172591 22.325096),深水埗区
115297,金泰美食,九龍城衙前塱道36号地下,$51-100,泰国菜,114.194353,22.326438,POINT (114.194353 22.326438),九龙城区
115353,薄饼博士,大角咀大角咀诗歌舞街83号亮贤居地下13号舖,$51-100,意大利菜,114.167671,22.322761,POINT (114.167671 22.322761),油尖旺区
115367,Lion Rock,旺角太子道西193号帝京酒店3楼,$201-400,西式,114.17802900000001,22.321233,POINT (114.178029 22.321233),油尖旺区
115374,澳门台山水佬荣火锅专家,佐敦佐敦道37C-37D号佐敦中心3-4楼,$201-400,港式,114.174085,22.302546,POINT (114.174085 22.302546),油尖旺区
115444,晓寿司,慈雲山毓华街芳华里2号地下,$50以下,日本菜,114.206759,22.344348,POINT (114.206759 22.344348),黄大仙区
115465,富临皇宫,黃大仙龙翔道120号新光中心3楼,$101-200,粤菜 (广东),114.20109,22.339163,POINT (114.20109 22.339163),黄大仙区
11560,飞鹰餐厅,深水埗荔枝角道256号,$51-100,西式,114.16734699999999,22.324603,POINT (114.167347 22.324603),深水埗区
11561,McCafe,美孚美孚新邨第七期万事达广场地下N60A号舖,$50以下,美国菜,114.143977,22.335285,POINT (114.143977 22.335285),深水埗区
11573,德国热狗,"何文田窝打老道67号D,Shop C",$50以下,德国菜,114.179759,22.315184,POINT (114.179759 22.315184),九龙城区
115831,茶木‧台式休闲餐厅,旺角弥敦道628号琼华中心10楼,$51-100,台湾菜,114.174893,22.315054,POINT (114.174893 22.315054),油尖旺区
115894,日和号寿司料理,九龍灣宏照道38号Megabox 10楼5号舖,$101-200,日本菜,114.21379099999999,22.316682999999998,POINT (114.213791 22.316683),观塘区
11605,贵麻桥咖喱屋,荔枝角福华街578号地舖,$50以下,港式,114.15756100000002,22.336539000000002,POINT (114.157561 22.336539),深水埗区
116195,路德会包美达社区中心小食堂,何文田忠孝街89号地下,$50以下,港式,114.18428200000001,22.31335,POINT (114.184282 22.31335),九龙城区
11636,宏兴美食馆 (庙街煲仔饭),"油麻地庙街10,13号地舖",$50以下,粤菜 (广东),114.18055,22.303967999999998,POINT (114.18055 22.303968),油尖旺区
11646,大家食,土瓜灣谭公道55号,$50以下,港式,114.193124,22.319551,POINT (114.193124 22.319551),九龙城区
116505,广东烧味餐厅,黃大仙龙翔道120号新光中心地下2号舖,$50以下,粤菜 (广东),114.20109,22.339163,POINT (114.20109 22.339163),黄大仙区
116561,元札幌拉面 (宇晴轩商场),荔枝角深盛路9号宇晴轩商场2楼7-8号舖,$51-100,日本菜,114.154721,22.332008,POINT (114.154721 22.332008),深水埗区
116827,土司工坊 (创纪之城五期(apm)),觀塘观塘道418号创纪之城五期(apm)4楼18号舖,$51-100,新加坡菜,114.22433500000001,22.311905,POINT (114.224335 22.311905),观塘区
117102,抹茶馆,鑽石山龙蟠街3号荷里活广场3楼325号舖,$51-100,日本菜,114.206896,22.337995000000003,POINT (114.206896 22.337995),黄大仙区
117326,彩晶轩,黃大仙睦邻街8号现崇山商场2楼8号舖,$201-400,粤菜 (广东),114.201516,22.337222,POINT (114.201516 22.337222),黄大仙区
117529,手作之店,慈雲山毓华街23号慈云山中心5楼MM02号舖,$50以下,日本菜,114.205549,22.345856,POINT (114.205549 22.345856),黄大仙区
1176,巧兴面食店,土瓜灣安徽街7号嘉信大厦地下,$50以下,粤菜 (广东),114.19211999999999,22.31211,POINT (114.19212 22.31211),九龙城区
117648,大自然素食,黃大仙睦邻街8号现崇山商场1楼102-103号舖,$101-200,港式,114.201516,22.337222,POINT (114.201516 22.337222),黄大仙区
117753,大眼仔美食,新蒲崗大有街32号泰力工业中心地下10号舖,$51-100,越南菜、泰国菜,114.202352,22.33418,POINT (114.202352 22.33418),黄大仙区
117774,小林札幌拉面,大角咀博文街11号富贵大厦西座地下16号舖,$101-200,日本菜,114.166418,22.31861,POINT (114.166418 22.31861),油尖旺区
117963,川味美食,深水埗汝州街257号地下,$50以下,川菜 (四川),114.163242,22.333855,POINT (114.163242 22.333855),深水埗区
117998,泰式烧烤,九龍城南角道33号A地下,$50以下,泰国菜,114.194682,22.326641,POINT (114.194682 22.326641),九龙城区
118509,小厨港作,荔枝角长沙湾道833号长沙湾广场1楼103A&B号舖,$50以下,港式,114.153465,22.334641,POINT (114.153465 22.334641),深水埗区
118530,Simplylife Bakery Cafe,九龍塘达之路80号又一城L2层30号舖,$101-200,西式,114.17943400000001,22.334584,POINT (114.179434 22.334584),深水埗区
1186,聘珍楼,鑽石山龙蟠街3号荷里活广场2楼208号舖,$101-200,粤菜 (广东),114.206896,22.337995000000003,POINT (114.206896 22.337995),黄大仙区
118656,金华美食,深水埗昌华街20号金华阁地下1号舖,$50以下,港式,114.18874,22.366884,POINT (114.18874 22.366884),沙田区
118950,争鲜外带寿司,紅磡德民街2-34E号黄埔新村地下4G号舖,$50以下,日本菜,114.192307,22.303435999999998,POINT (114.192307 22.303436),九龙城区
11914,景逸轩,紅磡都会道7号都会海逸酒店8楼,$101-200,粤菜 (广东),114.18831999999999,22.29849,POINT (114.18832 22.29849),油尖旺区
119321,谭仔云南米线,牛頭角牛头角下邨广场贵显楼地下五号舖,$50以下,滇菜 (云南),114.219293,22.323278,POINT (114.219293 22.323278),观塘区
119426,蒸品,大角咀海庭道8号富荣花园地下3号舖,$50以下,港式,114.169395,22.311081,POINT (114.169395 22.311081),油尖旺区
119482,浸信会医院餐厅,九龍塘窝打老道222号主座LG1,$50以下,港式,114.183217,22.33963,POINT (114.183217 22.33963),九龙城区
119629,富临皇宫,土瓜灣马头角道33号欣荣花园1楼,$101-200,粤菜 (广东),114.194427,22.31917,POINT (114.194427 22.31917),九龙城区
11966,友乐亭(炉端烧居酒屋),美孚兰秀道1至24号地下N9号舖,$101-200,日本菜,114.14377900000001,22.336485,POINT (114.143779 22.336485),深水埗区
119685,源发潮州粉面,牛頭角牛头角道162号金和楼地下,$50以下,潮州菜,114.220129,22.316089,POINT (114.220129 22.316089),观塘区
11992,美味小厨茶餐厅,美孚美孚新邨百老汇街25号C地下,$50以下,港式,114.14364599999999,22.334235,POINT (114.143646 22.334235),深水埗区
1200,山景阁,尖沙咀天文台道13-17号仕德福山景酒店大堂,$201-400,西式,114.179401,22.298701,POINT (114.179401 22.298701),油尖旺区
12004,嘉豪酒家,牛頭角振华道20号安基商场地下及一楼1R1舖,$101-200,粤菜 (广东)、港式,114.221942,22.319326999999998,POINT (114.221942 22.319327),观塘区
120343,美味东北饺子馆,油麻地弥敦道466-472号恩佳大厦地下F号舖,$50以下,东北菜,114.18055,22.303967999999998,POINT (114.18055 22.303968),油尖旺区
120357,大满喜日本料理,旺角弥敦道593-601号创兴广场8楼,$201-400,日本菜,114.1748,22.31356,POINT (114.1748 22.31356),油尖旺区
120406,寿司部,大角咀海庭道16号富荣花园2期地下U号舖,$50以下,日本菜,114.169395,22.311081,POINT (114.169395 22.311081),油尖旺区
120651,元気寿司,慈雲山毓华街23号慈云山中心1楼109号舖,$101-200,日本菜,114.205549,22.345856,POINT (114.205549 22.345856),黄大仙区
120812,Greyhound Caf&#233; (又一城),九龍塘达之路80号又一城2楼L2-42号舖,$101-200,泰国菜,114.17943400000001,22.334584,POINT (114.179434 22.334584),深水埗区
120868,红葱头,深水埗钦州街37号西九龙中心6楼601C号舖,$51-100,西式,114.16471200000001,22.328345000000002,POINT (114.164712 22.328345),深水埗区
120980,Mango Tree,尖沙咀柯士甸道西1号ELEMENTS圆方金区2楼2032号舖,$201-400,泰国菜,114.16646599999999,22.304044,POINT (114.166466 22.304044),油尖旺区
12120,明阁,旺角上海街555号香港康得思酒店6楼,$401-800,粤菜 (广东),114.173125,22.315171,POINT (114.173125 22.315171),油尖旺区
12121,The Place,旺角上海街555号香港康得思酒店L楼层,$401-800,多国菜,114.173125,22.315171,POINT (114.173125 22.315171),油尖旺区
121311,沙拉姆咖喱屋,油麻地广东道847-965号永发大厦地下6号舖,$51-100,印度菜,114.026725,22.443447,POINT (114.026725 22.443447),元朗区
121472,薄饼博士,土瓜灣谭公道32号地下,$51-100,意大利菜,114.193017,22.318801999999998,POINT (114.193017 22.318802),九龙城区
121500,四国日本料理,佐敦庙街273-285号地下5号舖,$101-200,日本菜,0.0,0.0,POINT (0 0),None
12176,千鹤日本料理,紅磡都会道7号都会海逸酒店8楼,$401-800,日本菜,114.18831999999999,22.29849,POINT (114.18832 22.29849),油尖旺区
121773,哈豆,觀塘成业街19号成业工业大厦2楼29室,$51-100,台湾菜,114.23190100000001,22.307237,POINT (114.231901 22.307237),观塘区
122088,凯撒饼店,油麻地窝打老道69C号地舖,$50以下,港式,114.180104,22.315618,POINT (114.180104 22.315618),九龙城区
122223,荣华饼家,黃大仙正德街103号黄大仙中心南馆LG楼LG7号舖,$50以下,港式,114.19726000000001,22.339238,POINT (114.19726 22.339238),黄大仙区
122384,老川皇,佐敦吴松街45号地下,$51-100,川菜 (四川),114.17556299999998,22.304683999999998,POINT (114.175563 22.304684),油尖旺区
122398,鸿福堂,何文田佛光街80号何文田广场地下9号,$50以下,粤菜 (广东),114.1866,22.313828,POINT (114.1866 22.313828),九龙城区
122447,鸿福堂,九龍塘港铁九龙塘站202号舖,$50以下,粤菜 (广东),114.180807,22.334154,POINT (114.180807 22.334154),深水埗区
122461,鸿福堂,九龍塘联合道320号建新中心低层地下6号舖,$50以下,粤菜 (广东),114.18575,22.336527,POINT (114.18575 22.336527),九龙城区
122797,Precious,牛頭角启兴道2号太平洋贸易中心12楼13-14室,$101-200,意大利菜,114.217266,22.313407,POINT (114.217266 22.313407),观塘区
122930,莉苑,長沙灣顺宁道273号日辉大厦地下G1号舖,$50以下,沪菜 (上海),114.163445,22.334539000000003,POINT (114.163445 22.334539),深水埗区
123147,一品鸡煲火锅,土瓜灣马头角道28号地库,$201-400,港式,114.194296,22.319568,POINT (114.194296 22.319568),九龙城区
1233,好好上海小馆,佐敦柯士甸道105号地下E2舖,$51-100,沪菜 (上海),114.177577,22.300728,POINT (114.177577 22.300728),油尖旺区
123352,富记美食,油麻地庙街36-40号地下D号舖,$50以下,港式,114.18055,22.303967999999998,POINT (114.18055 22.303968),油尖旺区
12363,生记卤味,紅磡芜湖街62号地下,$50以下,潮州菜,114.190758,22.30475,POINT (114.190758 22.30475),九龙城区
12373,乐园潮州粉面,美孚百老汇街93号美孚新村第4期地舖,$51-100,潮州菜,114.14644299999999,22.33296,POINT (114.146443 22.33296),深水埗区
123884,包点料理,彩虹华池径5号牛池湾村地下,$50以下,港式,114.21333500000001,22.332860999999998,POINT (114.213335 22.332861),黄大仙区
123898,壹窝煱火锅专门店,長沙灣顺宁道61号地下,$101-200,港式,114.16493200000001,22.333551,POINT (114.164932 22.333551),深水埗区
1239,豪城茶餐厅,深水埗元州街 131-133 号地舖,$50以下,港式,114.163242,22.333855,POINT (114.163242 22.333855),深水埗区
124096,东海堂,土瓜灣马头角道33号欣荣花园地下31号舖,$50以下,西式,114.194374,22.319298,POINT (114.194374 22.319298),九龙城区
124201,To-Gather Cafe,旺角洗衣街39-55号金鸡广场19楼15-17室,$101-200,多国菜,114.120815,22.369819,POINT (114.120815 22.369819),荃湾区
124362,贵族甜品 (元州街),深水埗元州街158号,$50以下,港式,114.165625,22.331772,POINT (114.165625 22.331772),深水埗区
124390,三井饱饼专门店,鑽石山蒲岗村道43-59号恒安大厦地下B号舖,$50以下,港式,114.203538,22.341151999999997,POINT (114.203538 22.341152),黄大仙区
1244,豪园餐厅,太子西洋菜街250-252号地舖,$50以下,港式,114.195528,22.325362,POINT (114.195528 22.325362),九龙城区
124509,得铁板烧,九龍城福佬村道57号地舖,$101-200,日本菜,114.19240900000001,22.326736999999998,POINT (114.192409 22.326737),九龙城区
124838,包点先生,黃大仙彩虹道121号啓德花园地下18号舖,$50以下,港式,114.199499,22.334941,POINT (114.199499 22.334941),黄大仙区
124908,添好运点心专门店,大角咀海庭道18号奥海城二期G楼72号舖,$51-100,港式,114.167259,22.314877,POINT (114.167259 22.314877),油尖旺区
125006,云峰茶餐厅,土瓜灣炮仗街146号金成大厦地下3号舖,$50以下,港式,114.194759,22.31844,POINT (114.194759 22.31844),九龙城区
125055,一风堂 (德福广场),九龍灣伟业街33号德福广场一期G54A1号舖,$101-200,日本菜,114.21838799999999,22.318039000000002,POINT (114.218388 22.318039),观塘区
125083,丼丼屋 (德福广场),九龍灣伟业街33号德福广场一期G54A2号舖,$51-100,日本菜,114.21838799999999,22.318039000000002,POINT (114.218388 22.318039),观塘区
125202,小曼谷海鲜烧烤屋,九龍城太子道西398号御太子地下1-3号舖,$101-200,泰国菜,114.19403700000001,22.325128,POINT (114.194037 22.325128),九龙城区
125209,金满庭京川沪菜馆 (德福广场),九龍灣伟业街33号德福广场二期6楼603号舖,$101-200,京川沪,114.21838799999999,22.318039000000002,POINT (114.218388 22.318039),观塘区
125258,八方云集锅贴水饺专门店,長沙灣元州街303号元州邨元州商场地下6号舖,$50以下,台湾菜,114.160529,22.335020999999998,POINT (114.160529 22.335021),深水埗区
125307,八方云集锅贴水饺专门店 (碧海蓝天),荔枝角深盛路8号碧海蓝天AEON超级巿场地下L009号舖,$50以下,台湾菜,114.153143,22.329747,POINT (114.153143 22.329747),深水埗区
125370,小王牛肉面,鑽石山龙蟠街3号荷里活广场3楼373号舖,$51-100,台湾菜,114.206896,22.337995000000003,POINT (114.206896 22.337995),黄大仙区
12542,妹记大排档,尖沙咀金巴利道45-47号金巴利广场地下,$51-100,港式,114.17908500000001,22.298227,POINT (114.179085 22.298227),油尖旺区
125440,谭仔云南米线,九龍灣宏开道8号其士商业大厦1楼,$50以下,滇菜 (云南),114.215958,22.318819,POINT (114.215958 22.318819),观塘区
125643,Royal Pantry,九龍灣宏照道33号国际交易中心地下5号舖,$51-100,西式,114.21439,22.318689000000003,POINT (114.21439 22.318689),观塘区
125734,尚鲜海鲜料理,佐敦吴松街62-64 幸福商业大厦1楼,$201-400,港式,114.175675,22.304237,POINT (114.175675 22.304237),油尖旺区
125860,一口京味,土瓜灣北帝街27号地下,$50以下,川菜 (四川),114.192994,22.318012,POINT (114.192994 22.318012),九龙城区
12592,圣安娜饼屋,荔枝角昇悦居昇悦商场1楼133号舖,$50以下,港式,0.0,0.0,POINT (0 0),None
12616,明珍美食,土瓜灣落山道1C舖地下,$50以下,港式,114.192144,22.315271,POINT (114.192144 22.315271),九龙城区
12628,鸿福海鲜四季火锅,土瓜灣落山道86号地下巷内,$201-400,港式,114.194695,22.313108,POINT (114.194695 22.313108),九龙城区
12643,竹园富园海鲜饭店,九龍城太子道西454-456号地舖,$201-400,粤菜 (广东),114.196051,22.32537,POINT (114.196051 22.32537),九龙城区
12676,合兴火锅,佐敦吴松街60号地下,$201-400,港式,114.175606,22.304195,POINT (114.175606 22.304195),油尖旺区
12689,强记大排档,深水埗基隆街219号地下,$51-100,港式,114.167744,22.325404000000002,POINT (114.167744 22.325404),深水埗区
126989,圣安娜饼屋,長沙灣长沙湾道796号地下,$50以下,港式,114.15444699999999,22.335353,POINT (114.154447 22.335353),深水埗区
127199,屈臣氏酒窖,九龍塘达之路80号又一城MTR层05号舖(Taste超市内),$101-200,西式,114.17943400000001,22.334584,POINT (114.179434 22.334584),深水埗区
12751,钻石冰室,彩虹青杨路11号彩虹邨金汉楼37号地舖,$50以下,港式,114.20896100000002,22.332487,POINT (114.208961 22.332487),黄大仙区
127691,争鲜外带寿司,美孚美孚新邨吉利径15-21号地舖,$50以下,日本菜,0.0,0.0,POINT (0 0),None
12788,福来居(牛记)海鲜饭店,太子基隆街4至6 号,$201-400,港式,114.172347,22.322019,POINT (114.172347 22.322019),油尖旺区
12791,汉记小厨,九龍灣启业启业街8号熟食亭,$51-100,港式,114.213747,22.340329,POINT (114.213747 22.340329),黄大仙区
1280,汉宝酒楼,土瓜灣土瓜湾道78A,$51-100,粤菜 (广东),114.194534,22.313979,POINT (114.194534 22.313979),九龙城区
12817,狎鸥亭居酒屋,尖沙咀诺士佛台9号冠福中心1楼,$201-400,韩国菜,114.178807,22.298551,POINT (114.178807 22.298551),油尖旺区
128428,富粥,土瓜灣鹤龄街1A号地舖,$50以下,港式,114.198172,22.317748,POINT (114.198172 22.317748),九龙城区
12853,彩福皇宴,紅磡都会道6-10号置富都会8楼858号舖,$101-200,粤菜 (广东),114.18818799999998,22.299988,POINT (114.188188 22.299988),油尖旺区
12867,义香荳腐食品,九龍城衙前塱道74号地下,$50以下,港式,114.194387,22.327476,POINT (114.194387 22.327476),九龙城区
128834,新高丽苑韩国餐厅,太子西洋菜南街218-220号生发大厦2楼,$101-200,韩国菜,114.195528,22.325362,POINT (114.195528 22.325362),九龙城区
12904,Godiva Chocolatier (又一城),九龍塘达之路80号又一城LG1-04店,$51-100,西式,114.17993999999999,22.334547,POINT (114.17994 22.334547),深水埗区
129058,うどん処 今助,大角咀大角咀道38号新九龙广场地下001-003及005号舖,$50以下,日本菜,114.16716799999999,22.317022,POINT (114.167168 22.317022),油尖旺区
12912,胡须安火锅菜馆,土瓜灣北帝街105号地下,$101-200,粤菜 (广东),114.19386499999999,22.319785999999997,POINT (114.193865 22.319786),九龙城区
129352,麦当劳,太子弥敦道763-767号新望大厦地库及地下入口,$50以下,美国菜,114.195528,22.325362,POINT (114.195528 22.325362),九龙城区
12958,大边炉火锅店,九龍城城南道12号,$201-400,港式,114.195947,22.325807,POINT (114.195947 22.325807),九龙城区
12984,上海饱饺店,紅磡明安街6号地舖,$50以下,沪菜 (上海),114.190595,22.303289000000003,POINT (114.190595 22.303289),九龙城区
13005,圣德肋撒医院餐厅,九龍城太子道327号圣德肋撒医院本座9楼,$50以下,多国菜,114.18961000000002,22.323875,POINT (114.18961 22.323875),九龙城区
130402,Seasons Restaurant &amp; Bar,佐敦吴松街157号地下,$101-200,多国菜,114.17496899999999,22.301825,POINT (114.174969 22.301825),油尖旺区
13086,金泰沙冰,九龍城衙前围道21号A2舖,$50以下,港式,114.195407,22.325937,POINT (114.195407 22.325937),九龙城区
130962,居庐 Cafe,太子界限街12A号地下,$101-200,西式,114.195528,22.325362,POINT (114.195528 22.325362),九龙城区
131041,云贵川风味 (谭公道),土瓜灣谭公道40-46号地舖,$50以下,滇菜 (云南)、川菜 (四川),114.19378200000001,22.320406,POINT (114.193782 22.320406),九龙城区
131069,安安烧 (染布房街),旺角染布房街6号地舖,$101-200,港式、川菜 (四川),114.178129,22.31529,POINT (114.178129 22.31529),油尖旺区
13114,小菜王,深水埗福荣街43号,$101-200,港式,114.17035,22.32705,POINT (114.17035 22.32705),深水埗区
13123,合益小食店,太子白杨街34号地舖,$50以下,港式,114.171775,22.324104000000002,POINT (114.171775 22.324104),深水埗区
131244,巨一面堂,佐敦长乐街28号地下,$51-100,日本菜,114.17738200000001,22.303971,POINT (114.177382 22.303971),油尖旺区
13131,金加利冰室,土瓜灣北帝街24-26 号 地下,$50以下,港式,114.193027,22.317622,POINT (114.193027 22.317622),九龙城区
131708,喀什米尔咖哩屋,深水埗北河街116B号地舖,$50以下,印度菜,114.163242,22.333855,POINT (114.163242 22.333855),深水埗区
132016,华安餐厅,牛頭角定富街34号地下,$50以下,港式,114.220649,22.314294,POINT (114.220649 22.314294),观塘区
132233,贡茶 (慈云山中心),慈雲山毓华街23号慈云山中心3楼322号舖,$50以下,台湾菜,114.205549,22.345856,POINT (114.205549 22.345856),黄大仙区
132317,大锅口海鲜火锅店,佐敦弥敦道219号庄士伦敦广场12楼,$101-200,潮州菜,114.17655400000001,22.300742,POINT (114.176554 22.300742),油尖旺区
1325,嘉豪酒家,長沙灣青山道155-181号天悦广场二楼B室,$101-200,粤菜 (广东)、港式,114.16514199999999,22.332389000000003,POINT (114.165142 22.332389),深水埗区
13252,蛇王涛,土瓜灣土瓜湾道2号地下,$50以下,粤菜 (广东),114.19375,22.312869,POINT (114.19375 22.312869),九龙城区
132590,米线阵,樂富联合道198号乐富广场A区1楼1112号号舖,$50以下,滇菜 (云南)、川菜 (四川),114.191116,22.335144,POINT (114.191116 22.335144),九龙城区
1333,合利潮洲粉面,新蒲崗衍庆街19号A舖地下,$50以下,潮州菜,114.200002,22.332989,POINT (114.200002 22.332989),黄大仙区
13364,幸福城茶餐厅,黃大仙彩虹道121号启德花园2期地下5号舖,$50以下,港式,114.199499,22.334941,POINT (114.199499 22.334941),黄大仙区
133936,泰嘉雯泰式去骨海南鸡饭,大角咀榉树街32号富多来商场地下,$50以下,泰国菜,114.168028,22.316892000000003,POINT (114.168028 22.316892),油尖旺区
133985,Pepper Lunch (1亚太中心),觀塘观塘道414号1亚太中心2楼202号舖,$51-100,日本菜,114.22934,22.309822,POINT (114.22934 22.309822),观塘区
134041,街头小食店,新蒲崗康强街32-34号康强洋楼地下16A舖,$50以下,港式,114.20137700000001,22.332016,POINT (114.201377 22.332016),黄大仙区
13406,星巴克咖啡,鑽石山龙蟠街3号荷里活广场2楼298号舖,$50以下,美国菜,114.206896,22.337995000000003,POINT (114.206896 22.337995),黄大仙区
134328,皇帝鸡,深水埗钦州街37号西九龙中心8楼美食广场8F-17,$50以下,韩国菜,114.16471200000001,22.328345000000002,POINT (114.164712 22.328345),深水埗区
13433,增煇大排档 &amp; 增煇艺厨,深水埗石硖尾街31-33号地舖,$101-200,港式,114.163242,22.333855,POINT (114.163242 22.333855),深水埗区
134545,MGB by Manhattan Grill &amp; Bar,觀塘观塘道414号亚太中心3楼303号舖,$201-400,西式、美国菜,114.229445,22.309819,POINT (114.229445 22.309819),观塘区
13462,山东饺子馆,長沙灣东京街40-42号E舖,$50以下,鲁菜 (山东),114.164479,22.333903,POINT (114.164479 22.333903),深水埗区
13484,开利小食,土瓜灣银汉街21-39号地下D舖,$50以下,港式,114.19423700000002,22.311802,POINT (114.194237 22.311802),九龙城区
1349,潮濠城酒楼,荔枝角长沙湾道833号长沙湾广场1楼,$101-200,潮州菜,114.153465,22.334641,POINT (114.153465 22.334641),深水埗区
135021,Cafe Ceres,九龍城福佬村道21号地舖,$101-200,意大利菜、法国菜,114.19233,22.325521,POINT (114.19233 22.325521),九龙城区
135315,吉豚屋吉列猪扒专门店,旺角通菜街142-146号启运大厦地下A舖,$51-100,日本菜,114.175205,22.319001,POINT (114.175205 22.319001),油尖旺区
135357,百份百餐厅 (爱民广场),何文田忠孝街60号爱民广场地下G37ab号舖,$50以下,港式,114.183816,22.309036,POINT (114.183816 22.309036),九龙城区
135427,红磡冰室,紅磡明安街25号地舖,$51-100,港式,114.19288600000002,22.303632999999998,POINT (114.192886 22.303633),九龙城区
135476,好烧式串烧专门店 (砵兰街),旺角砵兰街110号地下,$101-200,港式,114.174655,22.312197,POINT (114.174655 22.312197),油尖旺区
13577,潮馆 (创纪之城五期(apm)),觀塘观塘道418号创纪之城五期(apm)5楼1号舖,$101-200,潮州菜,114.22433500000001,22.311905,POINT (114.224335 22.311905),观塘区
13580,康年餐厅,太子通菜街143-145号地下,$50以下,港式,114.195528,22.325362,POINT (114.195528 22.325362),九龙城区
13596,日日鲜豆浆,美孚美孚新邨第七期万事达广场地下75D号舖,$50以下,港式,114.143977,22.335285,POINT (114.143977 22.335285),深水埗区
135987,嘉顿咖啡店,深水埗青山道58号嘉顿烘焙中心地舖,$50以下,西式,114.167482,22.331079000000003,POINT (114.167482 22.331079),深水埗区
13599,好面线,油麻地众坊街59号B舖,$50以下,川菜 (四川),114.174603,22.30738,POINT (114.174603 22.30738),油尖旺区
136008,面膳,何文田牧爱街30号香港公开大学地下,$50以下,港式,114.18506599999999,22.314018,POINT (114.185066 22.314018),九龙城区
136022,euro go go,樂富联合道198号乐富广场1楼1121-1122号,$51-100,西式,114.191116,22.335144,POINT (114.191116 22.335144),九龙城区
13626,肯德基家乡鸡 (KFC),觀塘观塘道418号创纪之城五期(apm)2楼1号舖,$50以下,美国菜,114.22433500000001,22.311905,POINT (114.224335 22.311905),观塘区
136302,御膳,觀塘敬业街65-67号敬运工业大厦12楼F室,$201-400,粤菜 (广东),114.231575,22.30629,POINT (114.231575 22.30629),观塘区
136764,Ocio (烟厂街),旺角烟厂街33号朗廷轩地下B舖,$101-200,多国菜,114.17770900000001,22.313894,POINT (114.177709 22.313894),油尖旺区
13677,联邦金阁酒家,佐敦弥敦道345号永安九龙中心8楼,$51-100,粤菜 (广东),114.176073,22.304682,POINT (114.176073 22.304682),油尖旺区
136820,CoCo壹番屋 (MegaBox),九龍灣宏照道38号MegaBox10楼2号舖,$51-100,日本菜,114.21379099999999,22.316682999999998,POINT (114.213791 22.316683),观塘区
136960,爱民面包西饼,何文田爱民邨昭民楼7号地舖,$50以下,港式,114.181839,22.310329,POINT (114.181839 22.310329),九龙城区
13708,Oliver&#39;s Super Sandwiches,觀塘观塘道418号创纪之城五期(apm)2楼L2-12及L2-13舖,$51-100,英国菜,114.22433500000001,22.311905,POINT (114.224335 22.311905),观塘区
13712,利苑酒家,观塘观塘道418号创纪之城五期(apm)5楼8号铺,$201-400,粤菜 (广东),114.22433500000001,22.311905,POINT (114.224335 22.311905),观塘区
137177,东海堂 Bake ‧&#160;Drink,九龍灣牛头角道77号淘大商场一期地下G12-15号舖,$50以下,西式,114.22156399999999,22.321483999999998,POINT (114.221564 22.321484),观塘区
137296,养和堂 (马蹄径),牛頭角马蹄径1号宝恩大厦地下2号舖,$50以下,粤菜 (广东),114.22851599999998,22.312681,POINT (114.228516 22.312681),观塘区
137324,新志兴至尊烧鹅大王,彩虹龙池径60号A地下,$50以下,粤菜 (广东),0.0,0.0,POINT (0 0),None
137415,陶源酒家,九龍灣常悦道9号企业广场1期地下,$201-400,粤菜 (广东),114.21236100000002,22.319553,POINT (114.212361 22.319553),观塘区
137513,恒昌楼正宗客家菜,土瓜灣美景街118号恒景阁31至35号地舖,$51-100,客家菜,114.197138,22.315288,POINT (114.197138 22.315288),九龙城区
137576,十八座狗仔粉,佐敦宁波街27A地舖,$50以下,港式,114.17598899999999,22.303829999999998,POINT (114.175989 22.30383),油尖旺区
13761,万豚屋,尖沙咀赫德道19-23号地舖,$101-200,日本菜,114.179921,22.295205,POINT (114.179921 22.295205),油尖旺区
137912,福崎面包屋,黃大仙竹园道15号竹园广场S012-013号舖,$50以下,港式,114.19783799999999,22.341920000000002,POINT (114.197838 22.34192),黄大仙区
137982,功夫点心,油麻地砵兰街10-16号宜发大厦地下B&C舖,$50以下,港式,114.18055,22.303967999999998,POINT (114.18055 22.303968),油尖旺区
138017,礼记美食中心,九龍灣常悦道13号瑞兴中心地下B舖,$50以下,港式,114.21400700000001,22.319093,POINT (114.214007 22.319093),观塘区
13811,南华餐厅,何文田窝打老道67号A地下,$50以下,港式,114.179759,22.315184,POINT (114.179759 22.315184),九龙城区
138150,淇琳美食餐厅,慈雲山蒲岗村道129号地下,$50以下,港式,114.20639299999999,22.343549,POINT (114.206393 22.343549),黄大仙区
138479,贤友餐室,土瓜灣麟祥街26号地下,$50以下,港式,114.19703700000001,22.319152,POINT (114.197037 22.319152),九龙城区
13857,TC2 (Tea Coffee Two),新蒲崗爵禄街98号地下8舖,$50以下,西式,114.202289,22.332219,POINT (114.202289 22.332219),黄大仙区
138892,Amour Corner,旺角砵兰街106号地下,$201-400,西式,114.174792,22.312185,POINT (114.174792 22.312185),油尖旺区
138899,BBQ,慈雲山毓华里28号A舖,$50以下,泰国菜,114.20768600000001,22.344065,POINT (114.207686 22.344065),黄大仙区
138955,沧浪亭,紅磡芜湖街111号芜湖居地下C1号舖,$50以下,沪菜 (上海),114.190403,22.304597,POINT (114.190403 22.304597),九龙城区
138997,程班长台湾美食,荔枝角长沙湾道883号亿利工业中心1楼102室,$51-100,台湾菜,114.152846,22.33417,POINT (114.152846 22.33417),深水埗区
139109,Pepper Lunch (MegaBox),九龍灣宏照道38号MegaBox 10楼3号舖,$51-100,日本菜,114.21379099999999,22.316682999999998,POINT (114.213791 22.316683),观塘区
13949,御泰坊-泰越菜,觀塘观塘道418号创纪之城五期(apm)4楼1-2号舖,$101-200,泰国菜,114.22433500000001,22.311905,POINT (114.224335 22.311905),观塘区
13956,彬记粥面美食,彩虹坪石村玉石楼地下109-112号舖,$51-100,港式,0.0,0.0,POINT (0 0),None
139746,Le Paradis Restaurant &amp; Cafe,尖沙咀加连威老道41C嘉威大厦4楼A室,$201-400,法国菜、西式,114.17953899999999,22.297483,POINT (114.179539 22.297483),油尖旺区
13976,港澳义顺牛奶公司,油麻地弥敦道513号地下,$50以下,港式,114.17555800000001,22.309738,POINT (114.175558 22.309738),油尖旺区
139809,Paul Lafayet,觀塘观塘道418号创纪之城五期(apm) 2楼12号舖,$50以下,法国菜,114.22433500000001,22.311905,POINT (114.224335 22.311905),观塘区
13987,天然居海鲜酒家,長沙灣元州街296号西岸国际大厦3楼,$51-100,粤菜 (广东),114.164181,22.33297,POINT (114.164181 22.33297),深水埗区
139914,红番茄餐厅,深水埗元州街13号地下,$101-200,西式,114.170143,22.328001,POINT (114.170143 22.328001),深水埗区
139921,J&amp;A Cake Shop,新蒲崗彩虹道18号地舖,$50以下,西式,114.199804,22.331421,POINT (114.199804 22.331421),黄大仙区
14001,川之味麻辣米线,太子通菜街212号地舖,$50以下,川菜 (四川),114.174594,22.321916,POINT (114.174594 22.321916),油尖旺区
140061,大胃烧,佐敦渡船角文英街20号地下,$51-100,川菜 (四川),114.17081599999999,22.30451,POINT (114.170816 22.30451),油尖旺区
14008,新味轩,新蒲崗大有街34号新科技广场地下12号舖,$50以下,港式,114.202168,22.333654,POINT (114.202168 22.333654),黄大仙区
140152,Burgerman,深水埗钦州街65-71号地下,$51-100,美国菜,114.163242,22.333855,POINT (114.163242 22.333855),深水埗区
140194,和匠日式烧肉店,佐敦长乐街23-27号德威大厦地下3号舖,$201-400,日本菜,114.177434,22.303732,POINT (114.177434 22.303732),油尖旺区
14035,龙宝酒家,長沙灣元洲街280-288号地下,$51-100,粤菜 (广东),114.16448100000001,22.33269,POINT (114.164481 22.33269),深水埗区
14036,鸿运车仔面,長沙灣永隆街12号地下,$50以下,港式,114.16281299999999,22.334076,POINT (114.162813 22.334076),深水埗区
14037,富临渔港囍临门酒家,荔枝角长沙湾道833号长沙湾广场2楼,$101-200,粤菜 (广东),114.153465,22.334641,POINT (114.153465 22.334641),深水埗区
140495,世纪椰汁,土瓜灣谭公道28号地下,$50以下,港式,114.19298300000001,22.318721,POINT (114.192983 22.318721),九龙城区
140831,红车厘面包西饼,黃大仙双鳯街14号地下,$50以下,港式,0.0,0.0,POINT (0 0),None
14087,山崎面饱,太子弥敦道771-775号柏宜中心地下7号舖,$50以下,日本菜,114.195528,22.325362,POINT (114.195528 22.325362),九龙城区
14141,金满堂甜品,九龍城城南道9号地舖,$50以下,港式,114.19573100000001,22.325747,POINT (114.195731 22.325747),九龙城区
14145,马德里餐厅,深水埗福荣街120-122号地下,$51-100,西式,114.163242,22.333855,POINT (114.163242 22.333855),深水埗区
141811,糖莲子,紅磡芜湖街68号光明阁地下D舖,$50以下,港式,114.190526,22.304887,POINT (114.190526 22.304887),九龙城区
14224,家家颂饼店,黃大仙竹园南邨竹园商场S3,$50以下,港式,0.0,0.0,POINT (0 0),None
14226,泰式烧王,九龍城南角道19号地下,$101-200,泰国菜,114.194645,22.325802,POINT (114.194645 22.325802),九龙城区
14228,苏记(茶档),深水埗耀东街15-16门前大牌档,$50以下,港式,114.170409,22.328571,POINT (114.170409 22.328571),深水埗区
142280,南记粉面,紅磡黄埔天地奇妙坊(第1期)地下G7F号舖,$50以下,港式,0.0,0.0,POINT (0 0),None
142322,川馆,大角咀铁树街19号金堂阁地下17A号舖,$50以下,川菜 (四川),114.16846799999999,22.316461999999998,POINT (114.168468 22.316462),油尖旺区
142392,MG Cafe,觀塘海滨道133号万兆丰中心2号舖,$101-200,西式,114.22223500000001,22.310175,POINT (114.222235 22.310175),观塘区
14254,汉发面家,深水埗大南街192号,$50以下,港式,114.168443,22.324433,POINT (114.168443 22.324433),深水埗区
14256,天祥饭店,深水埗石硖尾街医局街98号利德昌大厦侧,$101-200,港式,114.167399,22.323755,POINT (114.167399 22.323755),深水埗区
14257,爱文生,深水埗石硖尾街1号地下B-C号舖,$101-200,港式,114.167698,22.324406,POINT (114.167698 22.324406),深水埗区
142623,IKEA FiKET,九龍灣宏照道38号Megabox4楼,$51-100,西式,114.21379099999999,22.316682999999998,POINT (114.213791 22.316683),观塘区
14329,生记粥面,油麻地东方街9号地下(YMCA对面),$50以下,港式,114.17611299999999,22.310762,POINT (114.176113 22.310762),油尖旺区
14335,豪华饼店,九龍城衙前围道136号,$50以下,港式,114.19238200000001,22.326314,POINT (114.192382 22.326314),九龙城区
143428,大快活,"鑽石山富山邨富仁楼地下二层206, 207 及 208 号舖",$50以下,港式,114.206896,22.337995000000003,POINT (114.206896 22.337995),黄大仙区
14351,叶满记快餐美食,土瓜灣土瓜湾街市熟食档,$50以下,港式,114.192551,22.315634,POINT (114.192551 22.315634),九龙城区
143745,财记海鲜火锅活鱼刺身,大角咀埃华街84号地下,$201-400,港式,114.166054,22.318773999999998,POINT (114.166054 22.318774),油尖旺区
14391,英辉咖啡屋,彩虹牛池湾金池径29号地下,$50以下,港式,114.21495300000001,22.332913,POINT (114.214953 22.332913),黄大仙区
143997,鮨真,尖沙咀亚士厘道17-19号20楼,$801以上,日本菜,114.17539099999999,22.29423,POINT (114.175391 22.29423),油尖旺区
1441,清真牛肉馆,九龍城龙岗道 1 号,$51-100,新疆菜,114.195171,22.325407000000002,POINT (114.195171 22.325407),九龙城区
14418,顺德公渔村河鲜酒家,佐敦卫理道8号地下,$201-400,粤菜 (广东)、顺德菜,114.18175600000001,22.304979,POINT (114.181756 22.304979),油尖旺区
14445,太上渔村海鲜酒家,太子西洋菜北街197号地下,$51-100,港式,114.195528,22.325362,POINT (114.195528 22.325362),九龙城区
144585,深井陈记烧鹅,土瓜灣马头角道33欣荣花园商场地下13-14号舖,$51-100,粤菜 (广东)、港式,114.19421799999999,22.31821,POINT (114.194218 22.31821),九龙城区
14488,新香园 (坚记),深水埗桂林街38号A地下,$50以下,港式,114.166431,22.327780999999998,POINT (114.166431 22.327781),深水埗区
144928,薄饼吧,新蒲崗六合街19号香港九龙贝尔特酒店大堂,$201-400,多国菜,113.969075,22.375159,POINT (113.969075 22.375159),屯门区
144942,潮食街,新蒲崗六合街19号香港九龙贝尔特酒店1楼,$201-400,多国菜,113.969075,22.375159,POINT (113.969075 22.375159),屯门区
144963,来多客餐厅,深水埗元州街154号地舖,$50以下,港式,114.16572099999999,22.331694,POINT (114.165721 22.331694),深水埗区
145005,加贺真味料理,大角咀博文街24号A地下,$51-100,日本菜,114.166721,22.316679,POINT (114.166721 22.316679),油尖旺区
145026,虾记面厂,土瓜灣谭公道69号地下,$50以下,港式,114.193377,22.320019,POINT (114.193377 22.320019),九龙城区
145103,Le Viet,尖沙咀弥敦道100号The ONE 4楼L402舖,$101-200,越南菜,114.17768600000001,22.296816,POINT (114.177686 22.296816),油尖旺区
145229,Space cafe &amp; kitchen,牛頭角定安街47号地舖,$51-100,西式、多国菜,114.221411,22.314220000000002,POINT (114.221411 22.31422),观塘区
145439,居食屋「和民」 (1亚太中心),觀塘观塘道414号1亚太中心2楼203号舖,$101-200,日本菜,114.22934,22.309822,POINT (114.22934 22.309822),观塘区
145614,汉和韩国料理,觀塘观塘道414号1亚太中心9字楼,$101-200,韩国菜,114.22934,22.309822,POINT (114.22934 22.309822),观塘区
145684,新聚宝素食,深水埗大埔道79-85号民安大厦地下85号舖,$50以下,粤菜 (广东),114.168953,22.329592,POINT (114.168953 22.329592),深水埗区
146300,豆浆大王,新蒲崗大有街34号新科技广场地下9号舖,$50以下,沪菜 (上海),114.202168,22.333654,POINT (114.202168 22.333654),黄大仙区
146755,辛安东元祖奶奶鸡,旺角白布街20号地下,$101-200,韩国菜,114.177843,22.314925,POINT (114.177843 22.314925),油尖旺区
14728,金发车仔面,彩虹牛池湾富池径3号,$50以下,港式,114.21495300000001,22.332913,POINT (114.214953 22.332913),黄大仙区
147315,Candies Foodies,新蒲崗大有街14号 万星工业大厦地下C1舖,$50以下,意大利菜,114.20360500000001,22.335760999999998,POINT (114.203605 22.335761),黄大仙区
14743,肥仔号,九龍城侯王道73号舖地下,$51-100,港式,114.193572,22.327115,POINT (114.193572 22.327115),九龙城区
147469,星巴克咖啡,九龍塘浸会大学浸会大学道校园陈瑞槐夫人胡尹桂女士持续教育大楼1楼,$50以下,美国菜,114.184922,22.338404,POINT (114.184922 22.338404),九龙城区
147665,石墙道韩国餐厅,尖沙咀金巴利道27-33号永利大厦地下20及22号舖,$201-400,韩国菜,114.17851599999999,22.298017,POINT (114.178516 22.298017),油尖旺区
14790,吉野家,九龍塘达之路80号又一城L2层26号舖,$50以下,日本菜,114.17943400000001,22.334584,POINT (114.179434 22.334584),深水埗区
147924,HeSheEat (白布街),旺角白布街22号艺兴大厦地下4号舖,$51-100,西式,114.177784,22.314923,POINT (114.177784 22.314923),油尖旺区
14808,泰国路边街美食,九龍城城南道26号地舖,$51-100,泰国菜,114.19596999999999,22.326426,POINT (114.19597 22.326426),九龙城区
14811,成记牛什粉面,新蒲崗锦荣街4A号地下,$50以下,港式,0.0,0.0,POINT (0 0),None
14836,力奇四季火锅,大角咀角祥街53号地下,$201-400,港式,114.165256,22.318927,POINT (114.165256 22.318927),油尖旺区
148542,瑞士咖啡室,新蒲崗双喜街19号双喜工业大厦地舖,$50以下,港式,114.202423,22.334599,POINT (114.202423 22.334599),黄大仙区
148570,川烧,佐敦渡船角文英街17号地下,$101-200,川菜 (四川)、日本菜,114.17141799999999,22.304285,POINT (114.171418 22.304285),油尖旺区
14867,Cova Ristorante &amp; Caffe (又一城),九龍塘达之路80号又一城LG1层10-11号舖,$201-400,西式,114.17943400000001,22.334584,POINT (114.179434 22.334584),深水埗区
148808,珊姐点心居,何文田忠孝街60爱民邨爱民街市W31号舖,$50以下,粤菜 (广东),114.181839,22.310329,POINT (114.181839 22.310329),九龙城区
14895,明记面家,慈雲山毓华里18号慈华大厦地舖,$50以下,港式,114.20701899999999,22.343717,POINT (114.207019 22.343717),黄大仙区
148969,卤味小食,油麻地碧街35号,$50以下,港式,114.18055,22.303967999999998,POINT (114.18055 22.303968),油尖旺区
149046,Knockbox Coffee Company,旺角黑布街21号地下,$51-100,西式,114.17751000000001,22.314848,POINT (114.17751 22.314848),油尖旺区
14909,通达食店,油麻地碧街48号地舖,$50以下,港式,114.18055,22.303967999999998,POINT (114.18055 22.303968),油尖旺区
14911,明利油器粥品,何文田爱民村熟食亭,$50以下,港式,114.213747,22.340329,POINT (114.213747 22.340329),黄大仙区
14912,金利银辉茶餐厅,美孚美孚新邨第6期兰秀道25-27号地舖,$50以下,港式,114.145316,22.335779000000002,POINT (114.145316 22.335779),深水埗区
149277,庆发饭店,土瓜灣谭公道102-106号嘉运阁地下,$50以下,港式,114.193775,22.320294,POINT (114.193775 22.320294),九龙城区
149326,锅居火锅专门店,深水埗福华街 191号地下,$101-200,港式,114.165729,22.329911,POINT (114.165729 22.329911),深水埗区
149459,Greyhound Caf&#233; (MOKO新世纪广场),旺角太子道西193号MOKO新世纪广场3楼301-302号舖,$101-200,泰国菜,114.178197,22.321815,POINT (114.178197 22.321815),油尖旺区
149466,Riso SEGRETO,新蒲崗太子道东638号Mikiki地下LG7A号舖,$101-200,西式,114.20258100000001,22.330357,POINT (114.202581 22.330357),九龙城区
149494,canton pot,旺角广东道1131号香港旺角荟贤居2楼,$401-800,粤菜 (广东),114.171554,22.318567,POINT (114.171554 22.318567),油尖旺区
14977,八月花,九龍塘达之路80号又一城G层25号舖,$201-400,粤菜 (广东),114.17943400000001,22.334584,POINT (114.179434 22.334584),深水埗区
15008,苏三茶室,土瓜灣美善同道1号美嘉大厦地下10号舖,$201-400,多国菜,114.192048,22.316623,POINT (114.192048 22.316623),九龙城区
15021,荣发店海鲜菜馆,油麻地庙街148号地舖,$51-100,粤菜 (广东),114.18055,22.303967999999998,POINT (114.18055 22.303968),油尖旺区
15026,水云间,紅磡德丰街18号海滨广场一期地下,$101-200,西式,114.196455,22.299453,POINT (114.196455 22.299453),九龙城区
150560,掂档美食快餐,太子荔枝角道175-185号嘉福中心地下4号舖,$50以下,港式,114.168442,22.323389000000002,POINT (114.168442 22.323389),油尖旺区
15086,源记烧味粉面茶餐厅,尖沙咀金巴利道27号永利大厦6-10号舖地下,$50以下,港式,114.178606,22.298042000000002,POINT (114.178606 22.298042),油尖旺区
151015,醉榴香,荔枝角长顺街1号新昌工业大厦4楼408室,$50以下,马来西亚菜,114.15442900000001,22.334215,POINT (114.154429 22.334215),深水埗区
151043,花粉热,太子花墟道62-64号地下,$51-100,西式,114.195528,22.325362,POINT (114.195528 22.325362),九龙城区
15113,不倒翁中日火锅料理,佐敦佐敦道23-29号新宝广场2楼,$201-400,港式,114.175795,22.302806,POINT (114.175795 22.302806),油尖旺区
151197,Craft Coffee Roaster,大角咀大角咀道29号地舖,$50以下,西式,114.166852,22.316532000000002,POINT (114.166852 22.316532),油尖旺区
151225,alfafa,樂富联合道198号乐富广场一期UG2 L226&227,$51-100,西式,114.191116,22.335144,POINT (114.191116 22.335144),九龙城区
15138,云兴隆小厨,牛頭角牛头角下村14座地下6号,$51-100,粤菜 (广东),114.219293,22.323278,POINT (114.219293 22.323278),观塘区
15147,富华面包饼店,大角咀晏架街4号地下,$50以下,港式,114.169956,22.317411,POINT (114.169956 22.317411),油尖旺区
15150,君沪锅贴大王,長沙灣元洲街471号昌华阁2-3号地下,$50以下,沪菜 (上海),114.15911899999999,22.336569,POINT (114.159119 22.336569),深水埗区
15169,翠豪园餐厅,荔枝角长沙湾道833号长沙湾广场地下G01C号舖,$51-100,港式,114.153465,22.334641,POINT (114.153465 22.334641),深水埗区
151694,Pret a Manger,九龍灣宏照道33号国际交易中心G楼2号舖,$51-100,英国菜,114.21439,22.318689000000003,POINT (114.21439 22.318689),观塘区
151722,老三油渣面王,土瓜灣新山道4号长城大厦地下1A舖,$50以下,港式,114.19299099999999,22.318544,POINT (114.192991 22.318544),九龙城区
15173,大兴餐厅 (第尾牛扒),太子西洋菜南街218-220号1楼,$51-100,港式,114.195528,22.325362,POINT (114.195528 22.325362),九龙城区
15201,云南风味馆,長沙灣兴华街27C号地舖,$50以下,滇菜 (云南),114.160331,22.336887,POINT (114.160331 22.336887),深水埗区
15213,文成记,大角咀角祥街41号地下,$101-200,港式,114.16525,22.3184,POINT (114.16525 22.3184),油尖旺区
15221,明记甜品,佐敦吴松街98C地下,$50以下,港式,114.175431,22.303282,POINT (114.175431 22.303282),油尖旺区
152261,新恒辉,何文田卫理道31号4楼,$50以下,港式,114.180641,22.309924,POINT (114.180641 22.309924),油尖旺区
15228,香港仔一品鱼蛋王,油麻地南京街1号K座地下,$50以下,港式,114.18055,22.303967999999998,POINT (114.18055 22.303968),油尖旺区
15245,蛇王兄,太子砵兰街377号地下D,$101-200,粤菜 (广东),114.17253799999999,22.321595000000002,POINT (114.172538 22.321595),油尖旺区
152464,叶记大排档,土瓜灣炮仗街68号地下,$50以下,潮州菜、粤菜 (广东),114.1938,22.3165,POINT (114.1938 22.3165),九龙城区
15253,三河屋,紅磡明安街14号宝石戏院大厦地下D舖,$51-100,日本菜,114.190748,22.303604,POINT (114.190748 22.303604),九龙城区
15273,味味佳餐厅,美孚美孚新邨第二期吉利径21号地下,$50以下,港式,114.14516599999999,22.333734,POINT (114.145166 22.333734),深水埗区
152802,新大光灯,紅磡必嘉街69号E舖,$50以下,粤菜 (广东),114.18902,22.30424,POINT (114.18902 22.30424),九龙城区
152823,稻庭养助,紅磡黄埔新村民泰街27号地下A1舖,$101-200,日本菜,114.193132,22.304025,POINT (114.193132 22.304025),九龙城区
15296,佳佳粉面店,大角咀福全大厦福全街14号地下,$50以下,港式,114.169932,22.318134,POINT (114.169932 22.318134),油尖旺区
15311,上海包饺店,大角咀晏架街12A号地下,$50以下,沪菜 (上海),114.16879899999999,22.317055,POINT (114.168799 22.317055),油尖旺区
153698,批&amp;挞专门店,長沙灣港铁长沙湾站大堂CSW8号舖,$50以下,港式,0.0,0.0,POINT (0 0),None
153775,博多拉面别天神,尖沙咀阿士厘道24号天星大厦地下A1地舖,$51-100,日本菜,0.0,0.0,POINT (0 0),None
15391,富临渔港,紅磡明安街2-20号地下,$101-200,粤菜 (广东),114.19076100000001,22.303357000000002,POINT (114.190761 22.303357),九龙城区
15392,大盛日本料理,"觀塘观塘道404号时运工业大厦A,B,C舖",$101-200,日本菜,114.228124,22.310514,POINT (114.228124 22.310514),观塘区
15394,上海一品香菜馆,佐敦佐敦道14-16B号嘉信楼地下,$51-100,沪菜 (上海),114.17719199999999,22.302523,POINT (114.177192 22.302523),油尖旺区
153964,私家品味粤川居,黃大仙凤凰新村凤德道13号地下,$51-100,粤菜 (广东)、川菜 (四川),114.201201,22.340501999999997,POINT (114.201201 22.340502),黄大仙区
154027,萨莉亚意式餐厅 (西九龙中心),深水埗钦州街37K号西九龙中心4楼410号舖,$51-100,意大利菜,114.16471200000001,22.328345000000002,POINT (114.164712 22.328345),深水埗区
154034,萨莉亚意式餐厅 (奥柏‧御峯),大角咀榉树街88号奥柏‧御峯201&202号舖.,$51-100,意大利菜,114.16843999999999,22.318170000000002,POINT (114.16844 22.31817),油尖旺区
154125,大家乐,油麻地友翔道1号中港荟高层地下UG22号舖,$50以下,港式,114.17110500000001,22.306713000000002,POINT (114.171105 22.306713),油尖旺区
15439,麦当劳,何文田佛光街80号何文田广场3楼319号舖,$50以下,美国菜,114.1866,22.313828,POINT (114.1866 22.313828),九龙城区
15473,批&amp;挞专门店,九龍灣港铁九龙湾站KOB 15舖,$50以下,港式,114.21888700000001,22.322742,POINT (114.218887 22.322742),观塘区
154778,牛B仔清汤腩餐廰,佐敦北海街11号地下,$50以下,港式,114.177021,22.305045,POINT (114.177021 22.305045),油尖旺区
1548,金凤大餐厅 (荔枝角道),太子荔枝角道102号金凤楼地下,$101-200,港式、西式,114.202381,22.341661,POINT (114.202381 22.341661),黄大仙区
154897,陈师傅点心专门店,新蒲崗景福街41号地舖,$50以下,粤菜 (广东),114.201576,22.331273,POINT (114.201576 22.331273),黄大仙区
15496,喀什米尔咖喱屋,深水埗长沙环道264号地下E舖,$50以下,印度菜,114.163242,22.333855,POINT (114.163242 22.333855),深水埗区
15498,元気寿司,樂富联合道198号乐富广场1楼1157舖,$101-200,日本菜,114.191116,22.335144,POINT (114.191116 22.335144),九龙城区
155163,味皇,土瓜灣北帝街12-16号地下,$50以下,港式,114.19276799999999,22.317133,POINT (114.192768 22.317133),九龙城区
15524,御面の坊,紅磡都会道6-10号置富都会7楼754号舖,$50以下,日本菜,114.18818799999998,22.299988,POINT (114.188188 22.299988),油尖旺区
155625,英记油渣面,大角咀大角咀菩提街4号,$50以下,港式,114.16909799999999,22.319157999999998,POINT (114.169098 22.319158),油尖旺区
15568,Jazz Cafe,荔枝角长沙湾道794号2楼,$51-100,西式,114.15448300000001,22.335288000000002,POINT (114.154483 22.335288),深水埗区
1557,金家乐茶餐厅,大角咀大全街12-18号地下,$51-100,港式,114.16879899999999,22.317055,POINT (114.168799 22.317055),油尖旺区
155751,sweet&#39;spice,何文田忠孝街60号爱民广场G03号舖,$50以下,韩国菜,114.183816,22.309036,POINT (114.183816 22.309036),九龙城区
1562,金兰花泰国菜馆,九龍城龙岗道10-12号,$101-200,泰国菜,114.195397,22.325792,POINT (114.195397 22.325792),九龙城区
1563,甘露甜品,土瓜灣美景街 50 号,$50以下,粤菜 (广东),114.196004,22.314091,POINT (114.196004 22.314091),九龙城区
156544,客满庭,黃大仙睦邻街8号现崇山商场1楼16号舖,$51-100,客家菜,114.201516,22.337222,POINT (114.201516 22.337222),黄大仙区
15656,君沪锅贴大王,新蒲崗仁爱街44-46号,$50以下,沪菜 (上海),114.200061,22.331517,POINT (114.200061 22.331517),黄大仙区
15657,将军堡,荔枝角长沙湾道808号香港纱厂工业大厦1及2期地下C2B,$50以下,港式,114.15423100000001,22.335174,POINT (114.154231 22.335174),深水埗区
156572,栢档极品海南鸡饭,九龍灣牛头角道77号淘大商场一期地下G107号舖,$51-100,新加坡菜,114.22156399999999,22.321483999999998,POINT (114.221564 22.321484),观塘区
156628,金牌牛什,紅磡芜湖街 58 号金达阁地下 6 号舖,$50以下,港式,114.190845,22.304704,POINT (114.190845 22.304704),九龙城区
156733,喜来稀肉,尖沙咀金巴利道79-81号金栢阁1楼连地下,$101-200,韩国菜,114.180226,22.299073,POINT (114.180226 22.299073),油尖旺区
15677,昌发泰国粉面屋,九龍城城南道25-27号地下,$51-100,泰国菜,114.19576799999999,22.326482000000002,POINT (114.195768 22.326482),九龙城区
1568,金龙华美食店,黃大仙凤凰新邨银凤街2号地下,$50以下,港式,114.202997,22.341206,POINT (114.202997 22.341206),黄大仙区
156803,鹈舞,荔枝角长义街9号D2 Place一期地下2号舖,$201-400,日本菜,114.15361499999999,22.333387,POINT (114.153615 22.333387),深水埗区
156831,扇火锅,觀塘观塘道414号1亚太中心2楼205号舖,$101-200,日本菜,114.22934,22.309822,POINT (114.22934 22.309822),观塘区
156838,Little Break Coffee &amp; Kitchen,荔枝角长义街9号D2 Place一期地下G03舖,$101-200,西式,114.15361499999999,22.333387,POINT (114.153615 22.333387),深水埗区
156845,海岛鸡煲.烤鱼专门店,油麻地上海街349号地下,$51-100,川菜 (四川),114.17423400000001,22.310288,POINT (114.174234 22.310288),油尖旺区
157041,烧肉の牛太・本阵,觀塘观塘道418号创纪之城五期(apm)4楼23号舖,$201-400,日本菜,114.22433500000001,22.311905,POINT (114.224335 22.311905),观塘区
1575,金碧酒楼,彩虹彩虹村金碧楼 22 号地下,$101-200,粤菜 (广东),0.0,0.0,POINT (0 0),None
15757,遂兴粉面餐厅,油麻地上海街401号地下,$50以下,港式,114.17401299999999,22.311429,POINT (114.174013 22.311429),油尖旺区
15824,越旺美食,大角咀大角咀道67号地下,$50以下,越南菜,114.166817,22.317651,POINT (114.166817 22.317651),油尖旺区
15857,裕德素食,牛頭角定富街30号地下,$50以下,港式,114.220716,22.314373,POINT (114.220716 22.314373),观塘区
158910,稻香超级渔港 (李郑屋商场),長沙灣发祥街10号李郑屋商场301号舖,$101-200,粤菜 (广东),0.0,0.0,POINT (0 0),None
158931,仙迹岩,佐敦佐敦道5号至秀商业大厦一楼,$50以下,台湾菜,114.177379,22.303279,POINT (114.177379 22.303279),油尖旺区
158938,八方云集锅贴水饺专门店,土瓜灣谭公道28号地下A舖,$50以下,台湾菜,114.19298300000001,22.318721,POINT (114.192983 22.318721),九龙城区
15902,开心饼店,旺角广东道1000号地下,$50以下,港式,114.17259399999999,22.314646,POINT (114.172594 22.314646),油尖旺区
15924,东海堂,油麻地港铁油麻地站 9 号舖,$50以下,西式,114.18055,22.303967999999998,POINT (114.18055 22.303968),油尖旺区
159514,茶室,九龍灣宏照道33号国际交易中心1楼39号店,$50以下,新加坡菜,114.21439,22.318689000000003,POINT (114.21439 22.318689),观塘区
159556,Caf&#233; O Indian Kitchen,九龍塘达之路80号又一城MTR层Taste内,$101-200,多国菜,114.17943400000001,22.334584,POINT (114.179434 22.334584),深水埗区
159647,阿鸿小吃,觀塘鸿图道83号东瀛游广场地下A舖,$101-200,潮州菜、港式,114.22942900000001,22.305393,POINT (114.229429 22.305393),观塘区
159675,辉哥火锅,九龍城福佬村道58号地舖,$101-200,粤菜 (广东),114.192619,22.326822,POINT (114.192619 22.326822),九龙城区
159941,鲜丼家,何文田胜利道2A地下,$51-100,日本菜,114.17995900000001,22.315709,POINT (114.179959 22.315709),九龙城区
16000,上海美华菜馆,土瓜灣美善同里13号,$51-100,沪菜 (上海),114.191879,22.31682,POINT (114.191879 22.31682),九龙城区
160123,仁和堂龟苓膏专门店,樂富联合道198号乐富广场地下乐富街市105号档位,$50以下,粤菜 (广东),114.191116,22.335144,POINT (114.191116 22.335144),九龙城区
160564,原味屋,荔枝角长沙湾道883号亿利工业大厦地舖2A,$50以下,港式,114.152846,22.33417,POINT (114.152846 22.33417),深水埗区
16057,珠江酒家,太子荔枝角道138号地下,$101-200,粤菜 (广东),114.16995,22.322582999999998,POINT (114.16995 22.322583),油尖旺区
16060,胜利餐厅小厨,土瓜灣北帝街143号地下,$50以下,港式,114.194456,22.320943,POINT (114.194456 22.320943),九龙城区
160648,秋月居,牛頭角牛头角道3号得宝商场地下A2舖,$51-100,日本菜,114.219545,22.324479999999998,POINT (114.219545 22.32448),观塘区
160711,一粥面,黃大仙竹园道15号竹园广场1楼S112号舖,$50以下,港式,114.19783799999999,22.341920000000002,POINT (114.197838 22.34192),黄大仙区
161105,八一蕃巴蜀烤鱼店 (砵兰街),太子砵兰街436号地舖,$101-200,川菜 (四川),114.172444,22.32314,POINT (114.172444 22.32314),油尖旺区
161273,薄饼博士,慈雲山毓华街23号慈云山中心3楼331号舖,$51-100,意大利菜,114.205549,22.345856,POINT (114.205549 22.345856),黄大仙区
161315,Cheers Caf&#233;,九龍塘沙福道19号教育局九龙塘教育服务中心东座平台02室,$50以下,港式,114.18186399999999,22.333751,POINT (114.181864 22.333751),九龙城区
161406,正品鸡煲点心专门店,牛頭角牛头角道33号宏光楼12号地舖,$51-100,粤菜 (广东)、川菜 (四川),114.21977199999999,22.32299,POINT (114.219772 22.32299),观塘区
161483,小曼谷泰国美食 (南角道),九龍城南角道9-11号地下,$101-200,泰国菜,114.19463,22.325523,POINT (114.19463 22.325523),九龙城区
1615,加太贺,紅磡崇洁街 37 号地下,$201-400,日本菜,114.193634,22.308669000000002,POINT (114.193634 22.308669),九龙城区
161504,蚝站 (乐富广场),樂富联合道198号乐富广场街市地下401-402号舖,$201-400,西式,114.191116,22.335144,POINT (114.191116 22.335144),九龙城区
161646,小曼谷海鲜烧烤屋,九龍城衙前塱道1A地下,$101-200,泰国菜,114.194042,22.325039,POINT (114.194042 22.325039),九龙城区
161674,Pizza Piazza,荔枝角长沙湾道883号亿利工业中心地下1A舖,$101-200,意大利菜,114.152846,22.33417,POINT (114.152846 22.33417),深水埗区
161828,掌寿司,觀塘开源道60号骆驼漆大厦3座5楼U室,$201-400,日本菜,114.229905,22.307298,POINT (114.229905 22.307298),观塘区
161975,元気寿司,深水埗钦州街37号西九龙中心6楼620号舖,$101-200,日本菜,114.16471200000001,22.328345000000002,POINT (114.164712 22.328345),深水埗区
162075,西贡金鸡海南鸡,九龍城衙前围道84B地下,$51-100,新加坡菜、马来西亚菜,114.194666,22.326279,POINT (114.194666 22.326279),九龙城区
16214,食得妙,九龍城福佬村道64号,$101-200,粤菜 (广东),114.19263000000001,22.326995999999998,POINT (114.19263 22.326996),九龙城区
16227,好好运快餐店,荔枝角医局西街1035号汇华大厦地下4-5号舖,$50以下,港式,114.15222800000001,22.336188,POINT (114.152228 22.336188),深水埗区
162271,鸿福堂,土瓜灣马头角道33号欣荣花园商场地下 34号舖,$50以下,粤菜 (广东),114.19421799999999,22.31821,POINT (114.194218 22.31821),九龙城区
162474,85度C (晴朗商场),九龍城沐虹街12号启晴邨晴朗商场地下B017-018号舖,$50以下,台湾菜,114.20818700000001,22.329098000000002,POINT (114.208187 22.329098),九龙城区
16262,阿芳上海馄饨,紅磡崇洁街97号地下,$50以下,沪菜 (上海),114.19394,22.308562,POINT (114.19394 22.308562),九龙城区
162698,饭堂,九龍灣常悦道9号企业广场一期一楼B2舖,$50以下,西式,114.21236100000002,22.319553,POINT (114.212361 22.319553),观塘区
16277,AnyMomentCaf&#233;,旺角登打士街36号恒威商业中心9楼,$51-100,西式、多国菜,114.174802,22.312448,POINT (114.174802 22.312448),油尖旺区
1628,皇雀会,油麻地吴松街136-142 号金淞大厦地下至2楼,$51-100,粤菜 (广东),114.175172,22.301869,POINT (114.175172 22.301869),油尖旺区
16290,永隆正宗潮州卤水,長沙灣永隆街5号,$50以下,潮州菜,114.163197,22.334792999999998,POINT (114.163197 22.334793),深水埗区
16294,六合小馆,九龍塘联合道320号建新中心低层商场8号,$50以下,港式,114.18575,22.336527,POINT (114.18575 22.336527),九龙城区
163246,新富盈四川麻辣米线,土瓜灣北帝街15号地下,$50以下,川菜 (四川),114.19278899999999,22.317612,POINT (114.192789 22.317612),九龙城区
16325,永香冰室,土瓜灣炮仗街29号地下,$50以下,港式,114.193473,22.316285999999998,POINT (114.193473 22.316286),九龙城区
163470,Bierhof,太子界限街44-46号福禄大厦地舖,$101-200,德国菜,114.195528,22.325362,POINT (114.195528 22.325362),九龙城区
163575,麦当劳,彩虹清水湾道45号彩云商场二期地下上层A104及A115号舖,$50以下,美国菜,0.0,0.0,POINT (0 0),None
16360,惠群饼店,土瓜灣道21号地下,$50以下,港式,114.19313899999999,22.311788,POINT (114.193139 22.311788),九龙城区
163638,玥屋,大角咀海景街44号地舖,$101-200,日本菜,114.16588999999999,22.316443,POINT (114.16589 22.316443),油尖旺区
16367,房委会职员同乐会餐厅,何文田香港房屋署总部第四座3楼,$101-200,粤菜 (广东),0.0,0.0,POINT (0 0),None
163873,The Food Gallery,尖沙咀北京道8号香港朗廷酒店大堂,$401-800,西式,114.17488,22.29392,POINT (114.17488 22.29392),油尖旺区
16398,阿妹小馆,土瓜灣北帝街99号D地下,$50以下,粤菜 (广东),114.19380600000001,22.319677,POINT (114.193806 22.319677),九龙城区
164034,谭仔三哥米线,牛頭角牛头角道3号得宝花园商场地下C及D号舖,$50以下,滇菜 (云南),114.219545,22.324479999999998,POINT (114.219545 22.32448),观塘区
16411,Billy Boozer,九龍塘联合道320号建新中心地下20-22号舖,$50以下,西式,114.18575,22.336527,POINT (114.18575 22.336527),九龙城区
164533,海景粥店茶餐厅,牛頭角牛头角道3号德宝商场地下A7号舖,$50以下,港式,114.219545,22.324479999999998,POINT (114.219545 22.32448),观塘区
164708,川巴庄,太子砵兰街444号地下,$51-100,川菜 (四川),114.172402,22.323313,POINT (114.172402 22.323313),油尖旺区
164848,茶木‧台式休闲餐厅,紅磡黄埔天地美食坊(第8期)1楼116店,$51-100,台湾菜,0.0,0.0,POINT (0 0),None
164862,Burgerman,大角咀埃华街95-97号地下,$51-100,美国菜,114.16879899999999,22.317055,POINT (114.168799 22.317055),油尖旺区
16505,大荣华围村菜,九龍灣宏开道8号其士商业中心1楼2号舖,$101-200,港式,114.215958,22.318819,POINT (114.215958 22.318819),观塘区
165093,日日鲜豆浆美食店,何文田忠孝街60爱民邨爱民街市W37号舖,$50以下,港式,114.181839,22.310329,POINT (114.181839 22.310329),九龙城区
165184,龙顺轩海鲜酒家,彩虹彩德邨彩德商场602号,$101-200,粤菜 (广东),114.216606,22.327539,POINT (114.216606 22.327539),观塘区
165247,风月堂 洋菓子BAR,鑽石山龙蟠街3号荷里活广场3楼402室,$50以下,日本菜,114.206896,22.337995000000003,POINT (114.206896 22.337995),黄大仙区
16528,万发海鲜饭店,深水埗九江街150-152号地下,$101-200,港式,114.163242,22.333855,POINT (114.163242 22.333855),深水埗区
16529,金和记海鲜菜馆,深水埗九江街,$101-200,港式,114.163242,22.333855,POINT (114.163242 22.333855),深水埗区
165408,泰屋,九龍城城南道47号地下,$50以下,泰国菜,114.19578100000001,22.326949,POINT (114.195781 22.326949),九龙城区
16549,Q Club,尖沙咀诺士佛台15号2楼,$201-400,西式,114.179147,22.298161,POINT (114.179147 22.298161),油尖旺区
165639,新记越式牛肉粉,長沙灣青山道349号地舖,$50以下,越南菜,114.161068,22.335801,POINT (114.161068 22.335801),深水埗区
165646,Wolf Den Cafe,美孚百老汇街1A号地舖,$51-100,多国菜,114.142577,22.334067,POINT (114.142577 22.334067),深水埗区
165674,荣太日本家庭料理,荔枝角长义街9号D2 Place一期3楼307号舖,$50以下,日本菜,114.15361499999999,22.333387,POINT (114.153615 22.333387),深水埗区
165695,Antoshimo Cafe &amp; Bakery,新蒲崗太子道东638号Mikiki 地下G05B号舖,$51-100,日本菜,114.20258100000001,22.330357,POINT (114.202581 22.330357),九龙城区
165723,意乐餐厅 (彩云商场),彩虹清水湾道45号彩云商场二期2楼A209号舖,$51-100,港式、西式,0.0,0.0,POINT (0 0),None
165800,瀛鲜,土瓜灣土瓜湾道313号地下B舖,$51-100,日本菜,114.195829,22.31465,POINT (114.195829 22.31465),九龙城区
165821,开餐达人,觀塘开源道47号凯源工业大厦1楼B室,$101-200,多国菜,0.0,0.0,POINT (0 0),None
165933,韩宫,紅磡黄埔新村民兆街16号地舖,$51-100,韩国菜,114.19368300000001,22.3033,POINT (114.193683 22.3033),九龙城区
16594,黄兴记面家,牛頭角定安街122号A舖,$50以下,港式,114.22045200000001,22.315598,POINT (114.220452 22.315598),观塘区
16609,新三阳南货,九龍城侯王道49号地舖,$50以下,沪菜 (上海),114.19348600000001,22.32659,POINT (114.193486 22.32659),九龙城区
166138,极尚大喜屋,尖沙咀加连威老道2-6号爱宾商业大厦1楼102号舖,$201-400,日本菜,114.1776,22.296704000000002,POINT (114.1776 22.296704),油尖旺区
16627,新锦园大排档,大角咀福全街63号大角咀市政大厦2楼,$101-200,粤菜 (广东),114.167676,22.319570000000002,POINT (114.167676 22.31957),油尖旺区
166334,糖心轩,大角咀海辉道11号奥海城一期UG09舖,$101-200,粤菜 (广东)、港式,114.167259,22.314877,POINT (114.167259 22.314877),油尖旺区
166490,萨莉亚意式餐厅 (昇御商场),紅磡漆咸道北388号昇御商场1楼101号舖,$51-100,意大利菜,114.19121000000001,22.308434,POINT (114.19121 22.308434),九龙城区
166504,一粥面,鑽石山凤德邨凤德商场2楼204C号舖,$50以下,港式,114.20488700000001,22.340321,POINT (114.204887 22.340321),黄大仙区
166581,J&#39;s Petite Kitchen,荔枝角长沙湾道833号长沙湾广场1楼115号舖,$51-100,意大利菜,114.153465,22.334641,POINT (114.153465 22.334641),深水埗区
166700,无名班戟夹饼,牛頭角牛头角道33号宏光楼地下,$50以下,港式,114.220202,22.323284,POINT (114.220202 22.323284),观塘区
166905,甜一刻,長沙灣福荣街218号美居中心62号舖地下,$50以下,港式、西式,114.169573,22.329383,POINT (114.169573 22.329383),深水埗区
166975,彩福皇宴,佐敦弥敦道348号弥敦坊2楼西翼,$101-200,粤菜 (广东),114.17658,22.304508,POINT (114.17658 22.304508),油尖旺区
167250,谭仔云南米线,佐敦白加士街56号凯豪商业中心地下01-02舖,$50以下,滇菜 (云南),114.175738,22.301968,POINT (114.175738 22.301968),油尖旺区
167320,新南苑大排档,牛頭角牛头角道183号市政大厦1楼16至18号舖,$50以下,港式,114.21653700000002,22.281032999999997,POINT (114.216537 22.281033),东区
167516,陈记自家制豆腐花美食店,何文田梭桠道5号A,$50以下,港式,114.180178,22.315996,POINT (114.180178 22.315996),九龙城区
167700,R&amp;B,尖沙咀弥敦道172-174号太平洋大厦3楼,$101-200,西式,114.17705600000001,22.299720999999998,POINT (114.177056 22.299721),油尖旺区
168120,拉面来,旺角黑布街23号地下,$51-100,日本菜,114.17753200000001,22.314892,POINT (114.177532 22.314892),油尖旺区
168134,鲜粉人家,新蒲崗富源街2号A地下,$50以下,川菜 (四川),114.19981399999999,22.332404,POINT (114.199814 22.332404),黄大仙区
168267,小王牛肉面,九龍灣伟业街33号德福广场二期4楼410舖,$51-100,台湾菜,114.21838799999999,22.318039000000002,POINT (114.218388 22.318039),观塘区
168498,火玲珑,太子基隆街30号地下,$101-200,川菜 (四川),114.171849,22.322452,POINT (114.171849 22.322452),油尖旺区
168575,RBTea,太子弥敦道750号始创中心2楼232号舖,$51-100,台湾菜、西式,114.173952,22.319481,POINT (114.173952 22.319481),油尖旺区
168841,鸡煲皇,紅磡芜湖街123号地下A舖,$51-100,港式,114.19003700000002,22.304918,POINT (114.190037 22.304918),九龙城区
168939,米走鸡,長沙灣青山道379号昭德大厦地舖,$101-200,港式,114.16055,22.336209,POINT (114.16055 22.336209),深水埗区
168953,HANG A RI Korean Restaurant,紅磡崇洁街30号地下,$50以下,韩国菜,114.193529,22.30876,POINT (114.193529 22.30876),九龙城区
169072,谭仔三哥米线,長沙灣青山道252—256号金球阁地下A舖,$50以下,滇菜 (云南),114.16283,22.334687,POINT (114.16283 22.334687),深水埗区
169114,第一郡,深水埗荔枝角道315号地舖,$50以下,越南菜,114.165203,22.325785999999997,POINT (114.165203 22.325786),深水埗区
16921,上海真真豆浆大王,紅磡芜湖街48号地下,$50以下,沪菜 (上海),114.191043,22.304534,POINT (114.191043 22.304534),九龙城区
16930,卓记粥面小馆,土瓜灣漆咸道435-439号,$50以下,港式,114.19124099999999,22.310003,POINT (114.191241 22.310003),九龙城区
16933,文记传统车仔面,牛頭角下村14座3-4号地下,$50以下,港式,114.219293,22.323278,POINT (114.219293 22.323278),观塘区
169380,Oceanus 生蚝环球高级食材,荔枝角长沙湾道883号亿利工业中心5楼11室,$51-100,多国菜,114.152846,22.33417,POINT (114.152846 22.33417),深水埗区
16944,胜之道,何文田自由道6-8D地下,$51-100,日本菜,114.17958999999999,22.31597,POINT (114.17959 22.31597),九龙城区
16952,金豪酒家,深水埗青山道17号地下,$101-200,港式,114.167976,22.330446,POINT (114.167976 22.330446),深水埗区
169657,羊鞍餐厅,九龍城福佬村道22号地舖,$50以下,西式,114.18999,22.307752,POINT (114.18999 22.307752),九龙城区
16970,泰好味,九龍城城南道2号,$101-200,泰国菜,114.195927,22.325553,POINT (114.195927 22.325553),九龙城区
16975,德记粉面茶餐厅,長沙灣青山道152A号地舖,$50以下,港式,114.164798,22.333157,POINT (114.164798 22.333157),深水埗区
16976,兰香阁茶餐厅,長沙灣东沙岛街165号,$50以下,港式,114.16431000000001,22.332442999999998,POINT (114.16431 22.332443),深水埗区
169797,联发茶餐厅,九龍城侯王道2-4号地下1号舖,$50以下,港式,114.1937,22.325348,POINT (114.1937 22.325348),九龙城区
16982,金园茶餐厅,長沙灣青山道314号地下,$50以下,港式,114.16158899999999,22.335653,POINT (114.161589 22.335653),深水埗区
169909,Subway,彩虹港铁彩虹站CHH16号舖,$50以下,西式,0.0,0.0,POINT (0 0),None
169986,吉野家,何文田佛光街80号何文田广场3楼318号舖,$50以下,日本菜,114.1866,22.313828,POINT (114.1866 22.313828),九龙城区
170252,海记合桃坊甜品,土瓜灣马头角道33号欣荣花园购物商场地下4号舖,$50以下,港式,114.19421799999999,22.31821,POINT (114.194218 22.31821),九龙城区
170329,Beard Papa&#39;s (德福广场),九龍灣伟业街33号德福广场一期1楼F12C号舖,$50以下,日本菜,114.21838799999999,22.318039000000002,POINT (114.218388 22.318039),观塘区
170336,Crostini Bakery &amp; Cafe,九龍灣伟业街33号德福广场一期G96-G97号舖,$50以下,法国菜、西式,114.21838799999999,22.318039000000002,POINT (114.218388 22.318039),观塘区
170357,Ruby Tuesday,九龍灣宏照道38号MegaBox12楼23-25号舖,$201-400,美国菜,114.21379099999999,22.316682999999998,POINT (114.213791 22.316683),观塘区
17045,Ceres Boulangerie et Patisserie,九龍城福佬村道23号,$101-200,法国菜,114.19233,22.325546,POINT (114.19233 22.325546),九龙城区
17047,利得火锅,九龍城南角道56号地下,$201-400,港式,114.194903,22.327162,POINT (114.194903 22.327162),九龙城区
17051,永发茶餐厅,油麻地广东道847号,$50以下,港式,114.17300700000001,22.311386,POINT (114.173007 22.311386),油尖旺区
17062,两合海鲜火锅饭店,紅磡市政大厦2楼,$101-200,港式,0.0,0.0,POINT (0 0),None
17088,美味小食,大角咀道157号中美楼地下,$50以下,港式,114.16678300000001,22.320085,POINT (114.166783 22.320085),油尖旺区
170940,好德来小笼包店,佐敦德兴街18号地下,$51-100,沪菜 (上海),114.177411,22.302378,POINT (114.177411 22.302378),油尖旺区
171059,粥满家,新蒲崗锦荣街10号,$50以下,港式,0.0,0.0,POINT (0 0),None
17107,金牛火锅饭店,九龍城南角道45号地下,$101-200,港式,114.194681,22.326946,POINT (114.194681 22.326946),九龙城区
171157,回味茶餐厅,美孚美孚新邨3期百老汇街吉利径23A号舖,$51-100,港式,114.14505,22.33353,POINT (114.14505 22.33353),深水埗区
171206,醉江南,太子西洋菜北街157A号地舖,$50以下,沪菜 (上海),114.195528,22.325362,POINT (114.195528 22.325362),九龙城区
171213,金凤大餐厅 (晴朗商场),九龍城德朗邨沐虹街12号晴朗商场地外B003-004号舖,$101-200,港式、西式,114.18999,22.307752,POINT (114.18999 22.307752),九龙城区
171262,雪糕达人,深水埗钦州街37号西九龙中心8楼74舖,$50以下,港式,114.16471200000001,22.328345000000002,POINT (114.164712 22.328345),深水埗区
171276,Joyful Dessert House,旺角黑布街74号艺兴大厦地下2及3号舖,$50以下,西式,114.177723,22.314969,POINT (114.177723 22.314969),油尖旺区
171353,翠河餐厅,美孚美孚新邨4期百老汇街69-119号地下101A舖,$51-100,港式,114.145873,22.333195,POINT (114.145873 22.333195),深水埗区
171563,樱羽居,長沙灣永隆街1号地下,$50以下,日本菜,114.163132,22.334876,POINT (114.163132 22.334876),深水埗区
17173,开心茶餐厅,油麻地砵兰街45号地下,$50以下,港式,114.17474299999999,22.310688,POINT (114.174743 22.310688),油尖旺区
171978,鸿福堂,九龍灣牛头角道77号淘大商场一期地下G141号舖,$50以下,粤菜 (广东),114.22156399999999,22.321483999999998,POINT (114.221564 22.321484),观塘区
171985,iEAT,黃大仙睦邻街8号现崇山商场地下G3号舖,$50以下,日本菜,114.201516,22.337222,POINT (114.201516 22.337222),黄大仙区
17219,源发咖啡厅,太子基隆街67号地下,$50以下,港式,114.171151,22.322731,POINT (114.171151 22.322731),油尖旺区
172272,鹅记渣咋,油麻地庙街22号地下,$50以下,港式,114.18055,22.303967999999998,POINT (114.18055 22.303968),油尖旺区
172575,靓煲皇,旺角塘尾道18号嘉礼大厦地舖,$101-200,港式,114.171517,22.315565,POINT (114.171517 22.315565),油尖旺区
172743,皇朝私房火锅,紅磡崇志街20号地下,$201-400,港式、台湾菜,114.193156,22.308943,POINT (114.193156 22.308943),九龙城区
172750,葫芦馆,觀塘宜安街 2 号地下,$50以下,港式,114.226629,22.312481,POINT (114.226629 22.312481),观塘区
172848,&#201;PURE,尖沙咀广东道3-27号海港城海洋中心4楼403号铺,$801以上,法国菜,114.17383999999998,22.293336,POINT (114.17384 22.293336),油尖旺区
172883,红煮意,油麻地新填地街151号俊逸豪园1楼B座(後座入口/油麻地警署斜对面),$51-100,西式,114.17420200000001,22.307554,POINT (114.174202 22.307554),油尖旺区
17294,真心泰国菜馆,旺角砵兰街215号朗晴坊2楼,$101-200,泰国菜,114.17386599999999,22.314839000000003,POINT (114.173866 22.314839),油尖旺区
173172,OPPA韩国烧肉店,旺角洗衣街117号建煌华厦地下,$101-200,韩国菜,114.17628799999999,22.317579000000002,POINT (114.176288 22.317579),油尖旺区
17335,隆姐泰国美食馆,九龍城衙前塱道2A-B地下,$101-200,泰国菜,114.18999,22.307752,POINT (114.18999 22.307752),九龙城区
173382,港南湘蜀食堂,九龍城沐翠街晴朗商场地下B19舖,$51-100,川菜 (四川)、湘菜 (湖南),114.18999,22.307752,POINT (114.18999 22.307752),九龙城区
173417,豪园面家,黃大仙睦邻街8号现崇山商场地下21号,$51-100,潮州菜、港式,114.201516,22.337222,POINT (114.201516 22.337222),黄大仙区
173466,百宝小食,油麻地炮台街89-93号四喜楼地下,$50以下,港式,114.18055,22.303967999999998,POINT (114.18055 22.303968),油尖旺区
173517,靠得住粥面小馆,大角咀海庭道18号奥海城二期高层地下UG72号舖,$51-100,港式,114.167259,22.314877,POINT (114.167259 22.314877),油尖旺区
173559,Dazzling Cafe (The ONE),尖沙咀弥敦道100号ONE 3楼22号铺,$101-200,多国菜,114.17768600000001,22.296816,POINT (114.177686 22.296816),油尖旺区
17359,肥强火锅海鲜饭店,大角咀埃华街72号地下,$201-400,港式,114.166081,22.318763,POINT (114.166081 22.318763),油尖旺区
173608,味山田,觀塘成业街7号东广场地下G08舖,$50以下,日本菜,114.230958,22.307986,POINT (114.230958 22.307986),观塘区
173622,家餸,新蒲崗大有街33号佳力工业大厦1楼5室,$50以下,港式,114.20265900000001,22.333542,POINT (114.202659 22.333542),黄大仙区
17365,苏亚印度餐厅,長沙灣长沙湾道638号长盛豪苑地下D舖,$51-100,印度菜,114.15748500000001,22.335816,POINT (114.157485 22.335816),深水埗区
173797,星星 Pho Cha,佐敦文英街18号文英楼地下,$101-200,韩国菜,114.171552,22.304471,POINT (114.171552 22.304471),油尖旺区
1739,牛车水餐厅,美孚美孚新邨第七期万事达广场1楼,$51-100,港式、新加坡菜,114.143977,22.335285,POINT (114.143977 22.335285),深水埗区
173937,Fine foods pasta,大角咀樱桃街26号A富多来新村一期地下18号舗,$50以下,意大利菜、西式,114.16813300000001,22.316968,POINT (114.168133 22.316968),油尖旺区
173986,会所1号 九龙半山,何文田农圃道18号1楼,$101-200,粤菜 (广东),0.0,0.0,POINT (0 0),None
174182,陆陆鸡煲火锅,旺角白布街16号,$201-400,港式,114.178008,22.314949,POINT (114.178008 22.314949),油尖旺区
174273,肚饿了串烧烤焗专门店,尖沙咀亚士厘道17-19号6楼,$101-200,港式,114.17539099999999,22.29423,POINT (114.175391 22.29423),油尖旺区
174455,Gladys&#39; Estate Coffee,九龍城狮子石道6-8号美景楼地下,$101-200,西式,114.19315,22.325257,POINT (114.19315 22.325257),九龙城区
174637,大中华甜品,長沙灣福荣街535号地下,$50以下,港式,114.158437,22.33634,POINT (114.158437 22.33634),深水埗区
174651,Rustico,荔枝角长义街9号D2 PLACE一期地下G01舖,$101-200,西班牙菜,114.15361499999999,22.333387,POINT (114.153615 22.333387),深水埗区
174665,韩日烧,深水埗钦州街37号西九龙中心6楼612-613号舖,$101-200,韩国菜、日本菜,114.16471200000001,22.328345000000002,POINT (114.164712 22.328345),深水埗区
175038,Espuma,尖沙咀厚福街8号H8 2楼,$101-200,西班牙菜、多国菜,114.17959599999999,22.296851999999998,POINT (114.179596 22.296852),油尖旺区
175066,喜兆年酒家,荔枝角海丽邨海丽商场1楼105号舖,$101-200,粤菜 (广东),0.0,0.0,POINT (0 0),None
175143,Grove Sandwiches,荔枝角长沙湾道833号长沙湾广场地下G09B3舖,$50以下,西式,114.153465,22.334641,POINT (114.153465 22.334641),深水埗区
17523,面面栈,土瓜灣马头角道28号金都豪苑13号地舖,$50以下,港式,114.19384,22.319596,POINT (114.19384 22.319596),九龙城区
17526,龙门楼 - 志莲素斋,鑽石山凤德道60号南莲园池龙门楼,$101-200,粤菜 (广东),114.21463,22.333395,POINT (114.21463 22.333395),黄大仙区
175262,红葱头,紅磡都会道6-10号置富都会7楼757-759号舖,$51-100,西式,114.18818799999998,22.299988,POINT (114.188188 22.299988),油尖旺区
1754,公和荳品厂,深水埗北河街118号地下,$50以下,港式,114.168578,22.328354,POINT (114.168578 22.328354),深水埗区
17541,德艺会,九龍灣德福花园P13-14号,$101-200,粤菜 (广东),114.217584,22.320788,POINT (114.217584 22.320788),观塘区
175423,Open Fire,新蒲崗八达街3-5号安达工业大厦8楼A,$201-400,港式,114.203585,22.333978,POINT (114.203585 22.333978),黄大仙区
1755,恭和堂,油麻地吴松街15号地下,$50以下,粤菜 (广东),114.175753,22.305423,POINT (114.175753 22.305423),油尖旺区
175507,新海粥品,大角咀大同新邨大政街10号地下,$50以下,港式,114.166431,22.318978,POINT (114.166431 22.318978),油尖旺区
175605,嫲嫲辣辣,深水埗福荣街105号地下,$51-100,川菜 (四川),114.16808400000001,22.328841,POINT (114.168084 22.328841),深水埗区
175668,汉和韩国料理,佐敦弥敦道219号庄士伦敦广场9楼,$101-200,韩国菜,114.17655400000001,22.300742,POINT (114.176554 22.300742),油尖旺区
175710,鲜入围煮,旺角登打士街43H号登打士广场2楼,$201-400,粤菜 (广东),114.17608100000001,22.312929999999998,POINT (114.176081 22.31293),油尖旺区
175717,笑左卫门,土瓜湾北帝街101号地下,$101-200,日本菜,114.19378200000001,22.319815,POINT (114.193782 22.319815),九龙城区
17581,绿仙子台式餐厅,長沙灣长沙湾道680号丽新商业中心,$51-100,台湾菜,114.156871,22.336191,POINT (114.156871 22.336191),深水埗区
175892,Marks &amp; Spencer - 食品部,九龍塘达之路80号又一城LG1-01号舖,$51-100,西式、多国菜,114.17993999999999,22.334547,POINT (114.17994 22.334547),深水埗区
175906,Marks &amp; Spencer - 食品部,鑽石山龙蟠街3号荷里活广场101舖,$51-100,西式、多国菜,114.206896,22.337995000000003,POINT (114.206896 22.337995),黄大仙区
17638,Panash,九龍灣伟业街33号德福广场一期1楼F33-F34号舖,$50以下,西式,114.21838799999999,22.318039000000002,POINT (114.218388 22.318039),观塘区
17657,星巴克咖啡,荔枝角长沙湾道833号长沙湾广场地下G09B2及G09B4号舖,$50以下,美国菜,114.153465,22.334641,POINT (114.153465 22.334641),深水埗区
176592,龙皇酒家 (黄埔天地美食坊),紅磡黄埔天地美食坊(第8期)3楼301号舖,$101-200,粤菜 (广东),0.0,0.0,POINT (0 0),None
176627,德发潮州饭店,太子大南街58-60号地下,$51-100,潮州菜,114.195528,22.325362,POINT (114.195528 22.325362),九龙城区
176830,i kitchen,觀塘巧明街106号冠力工业大厦201室,$101-200,多国菜,114.22854699999999,22.308917,POINT (114.228547 22.308917),观塘区
176963,Jimmy&#39;s Coffee &amp; Kitchen,太子洗衣街203号耀昌大厦1楼203室,$51-100,多国菜,114.195528,22.325362,POINT (114.195528 22.325362),九龙城区
177040,虎沙烧鹅专门店,長沙灣东沙岛街171-175号,$50以下,粤菜 (广东)、港式,114.165027,22.333486999999998,POINT (114.165027 22.333487),深水埗区
177103,泰仔美食,九龍城九龙城南角道30-32号地下,$51-100,泰国菜,114.194883,22.326518,POINT (114.194883 22.326518),九龙城区
177110,八方云集锅贴水饺专门店 (白加士街),佐敦白加士街59号健能发展大厦地下,$50以下,台湾菜,114.175381,22.302061,POINT (114.175381 22.302061),油尖旺区
177131,金鮨,長沙灣兼善里44号A3地舖,$51-100,日本菜,0.0,0.0,POINT (0 0),None
17714,大自然素食,太子弥敦道750号始创中心3楼335号舖,$101-200,港式,114.173952,22.319481,POINT (114.173952 22.319481),油尖旺区
177222,煌极,黃大仙蒲岗村道33号百利轩地下1G舖,$201-400,粤菜 (广东)、川菜 (四川),114.20344899999999,22.340642000000003,POINT (114.203449 22.340642),黄大仙区
17727,东京面包饼食,長沙灣长发街18号地下,$50以下,港式,114.161594,22.336071,POINT (114.161594 22.336071),深水埗区
177327,重庆二姐火锅,長沙灣元州街482号金碧阁地下12号舖,$201-400,川菜 (四川),114.15868600000002,22.33717,POINT (114.158686 22.33717),深水埗区
177334,拉面天王,紅磡德民街17-27号B5B地下,$51-100,日本菜,114.19310800000001,22.303511,POINT (114.193108 22.303511),九龙城区
177355,牛下真好味,牛頭角牛头角道33号宏光楼地下,$50以下,港式,114.220202,22.323284,POINT (114.220202 22.323284),观塘区
177490,武士拉面,尖沙咀柯士甸路15号柯士甸大厦B座地下,$51-100,日本菜,114.180252,22.299336,POINT (114.180252 22.299336),油尖旺区
177602,The Captain&#39;s House,尖沙咀厚福街8号H8 18楼,$201-400,西式、美国菜,114.179599,22.296845,POINT (114.179599 22.296845),油尖旺区
177926,港口味冰室,長沙灣元州街409号地下,$50以下,港式,114.159236,22.336472,POINT (114.159236 22.336472),深水埗区
178376,聚贤庄川香农家菜,牛頭角宜安街15号地下,$51-100,川菜 (四川)、农家菜,114.227179,22.312626,POINT (114.227179 22.312626),观塘区
178502,北记咖啡奶茶,牛頭角牛头角道183号牛头角街市熟食中心1楼,$50以下,港式,114.159508,22.246471,POINT (114.159508 22.246471),南区
178537,谭仔三哥米线,土瓜灣土瓜湾道291号土瓜湾大厦地下,$50以下,滇菜 (云南),114.195493,22.314308,POINT (114.195493 22.314308),九龙城区
17870,安顺餐厅,牛頭角定富街45号华发楼地下,$50以下,港式,114.22074099999999,22.31423,POINT (114.220741 22.31423),观塘区
17892,利口福快餐店,太子大埔道14-16号华都大厦地下1号舖,$50以下,港式,114.195528,22.325362,POINT (114.195528 22.325362),九龙城区
179290,Red Rice 米饭主题餐厅 (六合街),新蒲崗六合街11-13号安隆工业大厦地下B室,$50以下,港式,0.0,0.0,POINT (0 0),None
1793,花月庭,旺角太子道西193号帝京酒店2楼,$201-400,多国菜,114.17802900000001,22.321233,POINT (114.178029 22.321233),油尖旺区
179395,唐记包点,觀塘港铁观塘站KWT 27舖,$50以下,港式,0.0,0.0,POINT (0 0),None
179437,烧味工房(小厨),油麻地砵兰街35号地舖,$51-100,粤菜 (广东)、港式,114.174774,22.310523,POINT (114.174774 22.310523),油尖旺区
179570,笼太子点心专门店,太子柏树街9号地舖,$50以下,粤菜 (广东)、港式,114.17146699999999,22.322405,POINT (114.171467 22.322405),油尖旺区
179584,老表面食,太子砵兰街373号,$50以下,港式,114.17279599999999,22.32152,POINT (114.172796 22.32152),油尖旺区
179598,尚上下夏 - 养生鸡煲火锅,尖沙咀山林道23号地下,$101-200,港式、川菜 (四川),114.17821399999998,22.300054,POINT (114.178214 22.300054),油尖旺区
179612,炑八韩烤,太子弥敦道749号欧亚银行大厦地库,$201-400,韩国菜,114.173302,22.320812,POINT (114.173302 22.320812),油尖旺区
179801,马丁王越式法包,佐敦德兴街1号B4地舖,$51-100,越南菜,114.177186,22.301344,POINT (114.177186 22.301344),油尖旺区
179822,iCafe,九龍塘浸会大学逸夫校园永隆银行商学大楼3楼,$50以下,西式,0.0,0.0,POINT (0 0),None
179885,新川美食,太子砵兰街414号,$50以下,滇菜 (云南)、川菜 (四川),114.172503,22.322705,POINT (114.172503 22.322705),油尖旺区
17997,海逸皇宫大酒楼,紅磡海逸道8号海逸坊1楼,$51-100,粤菜 (广东),114.196322,22.305868,POINT (114.196322 22.305868),九龙城区
18000,新金华酒家,彩虹牛池湾贵池径4号地下,$50以下,港式,114.21495300000001,22.332913,POINT (114.214953 22.332913),黄大仙区
180011,桃园制作粥面餐厅 (彩云商场),黃大仙清水湾道45号彩云商场3楼A322号舖,$50以下,港式,0.0,0.0,POINT (0 0),None
18010,一游,尖沙咀诺士佛台1号4楼,$201-400,日本菜,114.178102,22.298455,POINT (114.178102 22.298455),油尖旺区
180109,誉面坊,土瓜灣新山道6号地舖,$50以下,港式,114.19278500000001,22.318308,POINT (114.192785 22.318308),九龙城区
18013,肥姐小食店,旺角登打士街55号地下4A号舖,$50以下,港式,114.17669599999999,22.313095,POINT (114.176696 22.313095),油尖旺区
180151,海幸寿司,何文田自由道6-8号地下A舖,$101-200,日本菜,114.179702,22.315927,POINT (114.179702 22.315927),九龙城区
180172,北越牛肉粉专门店,土瓜灣翔龙湾广场G03地舖,$50以下,越南菜,114.14678300000001,22.481998,POINT (114.146783 22.481998),北区
180193,HeySoNuts,土瓜灣北帝街147号地下3号舖,$101-200,西式,114.194344,22.320901,POINT (114.194344 22.320901),九龙城区
180410,C&#211;MMM Vietnamese Cuisine,九龍灣宏照道38号MegaBox 8楼3号舖,$51-100,越南菜,114.21379099999999,22.316682999999998,POINT (114.213791 22.316683),观塘区
180438,629鸡蛋仔,新蒲崗康强街28号康景商场地下28J舖,$50以下,港式,114.201947,22.33204,POINT (114.201947 22.33204),黄大仙区
180445,梅子猫舍,觀塘成业街15-17号成运工业大厦14楼3室,$51-100,西式,114.231632,22.307548,POINT (114.231632 22.307548),观塘区
180494,Bistro,九龍塘达之路83号香港城市大学学术楼(三) 7楼,$50以下,西式,114.17808799999999,22.333467000000002,POINT (114.178088 22.333467),深水埗区
18053,真品店,土瓜灣落山道60号地下,$50以下,港式,114.194027,22.313968,POINT (114.194027 22.313968),九龙城区
180550,元気寿司,新蒲崗太子道东638号Mikiki 1楼105-105A舖,$101-200,日本菜,114.20258100000001,22.330357,POINT (114.202581 22.330357),九龙城区
18075,会所1号 博艺会,紅磡黄埔天地萤幕圈(第8期)4楼,$101-200,粤菜 (广东),0.0,0.0,POINT (0 0),None
18077,鸿兴面家,大角咀晏架街73号地下,$50以下,港式,114.16839099999999,22.317409,POINT (114.168391 22.317409),油尖旺区
180832,山田海韩国料理,觀塘开源道60号骆驼漆大厦三座3楼U室,$101-200,韩国菜,114.229905,22.307298,POINT (114.229905 22.307298),观塘区
180939,HIM,牛頭角鸿图道37号鸿泰工业大厦地下3号室,$51-100,多国菜,114.225848,22.309344,POINT (114.225848 22.309344),观塘区
180983,情味馆,佐敦伟晴街19号地下,$101-200,多国菜,114.172722,22.303419,POINT (114.172722 22.303419),油尖旺区
18149,顺发牛杂粉面茶餐厅,油麻地上海街207号地下,$50以下,港式,114.174856,22.305554,POINT (114.174856 22.305554),油尖旺区
18155,林园餐厅,鑽石山富山村富礼楼地下1A号舖,$50以下,港式,114.206896,22.337995000000003,POINT (114.206896 22.337995),黄大仙区
18164,一点心,太子通菜街209A-209B号地舖,$51-100,粤菜 (广东),114.195528,22.325362,POINT (114.195528 22.325362),九龙城区
1817,兰苑饎馆,太子西洋菜北街318号集贤楼地舖,$51-100,粤菜 (广东),114.195528,22.325362,POINT (114.195528 22.325362),九龙城区
18182,包包倾老赵越南餐厅,佐敦白加士街22-24号地下,$51-100,越南菜,114.175758,22.301097,POINT (114.175758 22.301097),油尖旺区
18191,高佬粥粉面饭,大角咀利得街2号地下,$50以下,港式,114.1667,22.318254,POINT (114.1667 22.318254),油尖旺区
18200,元気寿司,九龍灣伟业街33号德福广场1期G101号舖,$101-200,日本菜,114.21838799999999,22.318039000000002,POINT (114.218388 22.318039),观塘区
18211,宝兴冰厅,長沙灣青山道512号地下,$50以下,港式,114.156774,22.336969,POINT (114.156774 22.336969),深水埗区
18223,祥荣茶冰厅,牛頭角牛头角道245-247号地下,$50以下,港式,114.219293,22.323278,POINT (114.219293 22.323278),观塘区
18228,无名炭炉鸡蛋仔,牛頭角牛头角下邨第9座食街对开,$50以下,港式,114.22098000000001,22.320364,POINT (114.22098 22.320364),观塘区
182557,文华鸡饭(新加坡),大角咀中汇街17号地下,$51-100,新加坡菜,114.16618999999999,22.319707,POINT (114.16619 22.319707),油尖旺区
18268,陵发潮州白粥,太子新填地街625-627号地下,$101-200,潮州菜,114.195528,22.325362,POINT (114.195528 22.325362),九龙城区
18269,君临宴会厅,荔枝角荔枝角道863号泓景台商场1楼18号舖,$101-200,粤菜 (广东),114.153098,22.331187,POINT (114.153098 22.331187),深水埗区
182881,韩珍 (宝勒巷),尖沙咀宝勒巷6-8A号盈丰商业大厦1楼,$201-400,韩国菜,114.17934699999999,22.295912,POINT (114.179347 22.295912),油尖旺区
18290,美其香饼家,長沙灣兴华街27E号地下,$50以下,港式,114.160381,22.336944,POINT (114.160381 22.336944),深水埗区
18299,兴记面食家,太子基隆街51号地下,$50以下,粤菜 (广东),114.176966,22.319743,POINT (114.176966 22.319743),油尖旺区
183212,泰厨泰国菜馆,旺角通菜街126号地下,$101-200,泰国菜,114.175215,22.318645999999998,POINT (114.175215 22.318646),油尖旺区
183219,山葵日本料理,九龍城狮子石道26号地下,$101-200,日本菜,114.19316599999999,22.325595,POINT (114.193166 22.325595),九龙城区
183240,神户屋日韩放题,旺角西洋菜街1号兆万中心8楼,$201-400,韩国菜、日本菜,114.175229,22.315877,POINT (114.175229 22.315877),油尖旺区
183317,潮味庄,土瓜灣北帝街17-19号,$50以下,潮州菜,114.19281699999999,22.317706,POINT (114.192817 22.317706),九龙城区
183366,Pepper Lunch (黄埔天地美食坊),紅磡黄埔天地美食坊(第8期)1楼117-118 号舖,$51-100,日本菜,0.0,0.0,POINT (0 0),None
18340,爱家素食 (淘大商场),九龍灣牛头角道77号淘大商场二期地下G242-245号舖,$50以下,多国菜,114.22156399999999,22.321483999999998,POINT (114.221564 22.321484),观塘区
18344,SPICE Restaurant &amp; Bar,尖沙咀诺士佛台1号2楼,$201-400,印度菜、意大利菜,114.178102,22.298455,POINT (114.178102 22.298455),油尖旺区
183520,稻香超级渔港 (凤德商场),鑽石山凤德邨凤德商场2楼及3楼203号舖,$101-200,粤菜 (广东),114.20488700000001,22.340321,POINT (114.204887 22.340321),黄大仙区
18354,兴发面家,長沙灣保安道337号地下,$50以下,港式,114.16211899999999,22.336419,POINT (114.162119 22.336419),深水埗区
183639,地中海休闲餐厅,九龍塘联福道32号吴多泰博士国际中心地下,$51-100,多国菜,114.186581,22.333710999999997,POINT (114.186581 22.333711),九龙城区
18365,鸿福堂,彩虹港铁彩虹站16号舖,$50以下,粤菜 (广东),0.0,0.0,POINT (0 0),None
183667,八方云集锅贴水饺专门店,黃大仙竹园路15号竹园(南)广场1楼S122号舖,$50以下,台湾菜,114.14678300000001,22.481998,POINT (114.146783 22.481998),北区
18368,龙皇酒家 (开源道),觀塘开源道64号源成中心2楼,$101-200,粤菜 (广东),114.230092,22.307932,POINT (114.230092 22.307932),观塘区
18374,锺菜,九龍灣宏远街1号壹号九龙G01号舖,$101-200,粤菜 (广东),114.21553999999999,22.318296,POINT (114.21554 22.318296),观塘区
183772,好好肥牛鸡煲店,佐敦庙街286-298号地下D及E舖,$201-400,粤菜 (广东)、川菜 (四川),0.0,0.0,POINT (0 0),None
184,Bostonian Seafood &amp; Grill,尖沙咀北京道8号香港朗廷酒店低层大堂,$401-800,多国菜,114.17488,22.29392,POINT (114.17488 22.29392),油尖旺区
184033,老川皇,旺角登打士街32号欧美广场1楼,$51-100,川菜 (四川),114.17430900000001,22.312367000000002,POINT (114.174309 22.312367),油尖旺区
184054,联邦邮轮宴会中心,九龍灣承丰道33号启德邮轮码头2楼B区 N205及N206号舖,$51-100,粤菜 (广东),114.217633,22.303851,POINT (114.217633 22.303851),九龙城区
184110,永利餐厅,何文田何文田窝打老道73号地下A舖,$50以下,港式,114.180527,22.316381,POINT (114.180527 22.316381),九龙城区
184173,品潮轩,九龍城沙浦道83号御豪门地下2&3号舖,$101-200,潮州菜,114.19742600000001,22.328046,POINT (114.197426 22.328046),九龙城区
184497,和牛烧肉‧纯,尖沙咀东部加连威老道96号希尔顿大厦1楼3号舖,$401-800,日本菜,114.18183300000001,22.296712,POINT (114.181833 22.296712),油尖旺区
184504,四喜冰室,九龍灣宏开道8号其士商业中心地下4号舖,$51-100,港式,114.215958,22.318819,POINT (114.215958 22.318819),观塘区
18476,Pizza-Box (界限街),太子界限街42号地下,$51-100,意大利菜,114.173718,22.323669,POINT (114.173718 22.323669),油尖旺区
18508,金豪茶餐厅,九龍城狮子石道91号地下,$50以下,港式,114.193044,22.327698,POINT (114.193044 22.327698),九龙城区
185194,饺掂手工饺子云吞专门店,太子界限街30号地下,$51-100,粤菜 (广东),114.17193300000001,22.323611,POINT (114.171933 22.323611),油尖旺区
185264,大快活,九龍灣宏照道38号企业广场五期MEGABOX L2 24号铺,$50以下,港式,114.21379099999999,22.316682999999998,POINT (114.213791 22.316683),观塘区
185336,百乐小馆,尖沙咀弥敦道132号美丽华广场一期食四方4楼405 号舖,$201-400,潮州菜,114.17760600000001,22.298382999999998,POINT (114.177606 22.298383),油尖旺区
18537,百乐门宴会厅,九龍灣宏照道38号MegaBox 14楼1号舖,$101-200,粤菜 (广东),114.21379099999999,22.316682999999998,POINT (114.213791 22.316683),观塘区
18572,好雪片片,太子洗衣街223号1楼,$51-100,西式,114.195528,22.325362,POINT (114.195528 22.325362),九龙城区
185837,有缘小敍,佐敦文苑街36号地舖,$51-100,陕菜 (陕西),114.17077900000001,22.305001,POINT (114.170779 22.305001),油尖旺区
185963,大家乐,長沙灣幸祥街8号幸福邨幸福商场一楼109及109A舖,$50以下,港式,114.17633899999998,22.314919,POINT (114.176339 22.314919),油尖旺区
185998,丼海龙王,新蒲崗景福街67号地舖,$51-100,日本菜,114.20213899999999,22.331561999999998,POINT (114.202139 22.331562),黄大仙区
186005,拿督星马大饭店,觀塘海滨道190号观塘码头熟食市场1楼20号舖,$50以下,新加坡菜、马来西亚菜,114.22733999999998,22.304113,POINT (114.22734 22.304113),观塘区
186040,芝麻开门甜品专门店,太子大南街35 号地舖B,$50以下,港式,114.195528,22.325362,POINT (114.195528 22.325362),九龙城区
186061,日牛涮涮锅专门店,新蒲崗太子道东638号Mikiki 1楼111舖,$101-200,日本菜,114.20258100000001,22.330357,POINT (114.202581 22.330357),九龙城区
186119,Home Sweet Home,太子基隆街13号永基楼地舖,$201-400,西式、多国菜,114.20315,22.340692,POINT (114.20315 22.340692),黄大仙区
186126,牛角日本烧肉专门店 (奥海城),大角咀海庭道18号奥海城二期1楼128A号舖,$201-400,日本菜,114.167259,22.314877,POINT (114.167259 22.314877),油尖旺区
18613,联福餐厅,九龍塘联福道34号香港浸会大学逸夫校园思齐楼2字楼,$50以下,港式,114.186881,22.334416,POINT (114.186881 22.334416),九龙城区
186133,牛涮锅,大角咀海庭道18号奥海城二期1楼128A号,$201-400,日本菜,114.167259,22.314877,POINT (114.167259 22.314877),油尖旺区
18614,浸大食坊,九龍塘香港浸会大学浸会大学道校园学生宿舍李文正楼地下,$50以下,港式,114.18769099999999,22.332145999999998,POINT (114.187691 22.332146),九龙城区
18615,衡轩,九龍塘香港浸会大学善衡校园邵逸夫大楼4楼,$50以下,港式,114.18458000000001,22.337436999999998,POINT (114.18458 22.337437),九龙城区
186238,大家乐,樂富联合道198号乐富广场2期UG1层,$50以下,港式,114.191116,22.335144,POINT (114.191116 22.335144),九龙城区
18628,太兴,九龍灣宏照道38号MegaBox 10楼7号舖,$51-100,港式,114.21379099999999,22.316682999999998,POINT (114.213791 22.316683),观塘区
186462,Number Fifteen,荔枝角永明街1号恒昌工厂大厦15C,$201-400,英国菜,114.155083,22.337614000000002,POINT (114.155083 22.337614),深水埗区
186567,云桂香米线专门店,太子西洋菜南街101号金德行地下AB舖,$50以下,滇菜 (云南)、桂菜 (广西),114.174374,22.318535,POINT (114.174374 22.318535),油尖旺区
1866,普光斋,佐敦佐敦道13号华丰大厦地下,$101-200,粤菜 (广东),114.177016,22.302927,POINT (114.177016 22.302927),油尖旺区
186602,新汇聚餐厅小厨,觀塘成业街15-17号成运工业大厦1楼1室,$101-200,粤菜 (广东),114.231632,22.307548,POINT (114.231632 22.307548),观塘区
18674,联发海鲜菜馆,佐敦吴松街76-78号地下,$101-200,粤菜 (广东),114.1756,22.303994,POINT (114.1756 22.303994),油尖旺区
186912,Hearties Studio,荔枝角长裕街11号定丰中心9楼6室,$51-100,多国菜,114.155148,22.33434,POINT (114.155148 22.33434),深水埗区
186954,柠檬泰国餐厅,九龍城城南道38-40号地舖,$101-200,泰国菜,114.195982,22.326666,POINT (114.195982 22.326666),九龙城区
187241,赏茶,佐敦柯士甸道63号幸运大厦5号地舖,$50以下,台湾菜,114.17537,22.300524,POINT (114.17537 22.300524),油尖旺区
187367,Amazing,油麻地九龙窝打老道23号城景国际大堂,$101-200,泰国菜,114.18055,22.303967999999998,POINT (114.18055 22.303968),油尖旺区
1874,老赵越南餐厅,佐敦文苑街25-27号地下,$51-100,越南菜,114.17120800000001,22.304739,POINT (114.171208 22.304739),油尖旺区
187479,Assembly,尖沙咀诺士佛台6号地下及1楼,$201-400,西式、美国菜,114.178592,22.298464000000003,POINT (114.178592 22.298464),油尖旺区
187493,岚山日本料理,尖沙咀棉登径11号地舖,$201-400,日本菜,114.17941,22.293897,POINT (114.17941 22.293897),油尖旺区
187591,来发馆海鲜火锅刺身专门店,太子大南街40-42号地下,$201-400,粤菜 (广东),114.195528,22.325362,POINT (114.195528 22.325362),九龙城区
187612,龙珠饼店,油麻地上海大厦380号地舖,$50以下,港式,114.17441399999998,22.31108,POINT (114.174414 22.31108),油尖旺区
18762,大中华饭店,長沙灣福荣街539号地下,$101-200,粤菜 (广东),114.158374,22.336389999999998,POINT (114.158374 22.33639),深水埗区
18765,太兴,土瓜灣马头角新码头街38号翔龙湾广场地下1号舖,$51-100,港式,114.197868,22.31661,POINT (114.197868 22.31661),九龙城区
187894,乐天大喜屋,旺角弥敦道593-601号创兴广场2楼,$201-400,日本菜,114.1748,22.31356,POINT (114.1748 22.31356),油尖旺区
188036,豪记,佐敦庙街257号地舖,$101-200,粤菜 (广东),0.0,0.0,POINT (0 0),None
188064,英王面包店,樂富港铁乐富站L0F10号舖,$50以下,西式,0.0,0.0,POINT (0 0),None
188127,英王面包店,美孚港铁美孚站MEF 116号舖,$50以下,西式,0.0,0.0,POINT (0 0),None
18837,兴记茶餐厅,牛頭角牛头角下村10座11-12号,$50以下,港式,114.219293,22.323278,POINT (114.219293 22.323278),观塘区
188593,Goobne Chicken (The Hart),尖沙咀赫德道4号The Hart 2楼,$101-200,韩国菜,114.17961000000001,22.295196,POINT (114.17961 22.295196),油尖旺区
18862,金满堂甜品,九龍灣牛头角道77号淘大商场二期地下G201-201A号舖,$50以下,港式,114.22156399999999,22.321483999999998,POINT (114.221564 22.321484),观塘区
18868,潢金咖啡快餐,土瓜灣浙江街36号A,$50以下,泰国菜,114.19383799999999,22.312494,POINT (114.193838 22.312494),九龙城区
18878,莉莎小厨,何文田胜利道8号,$50以下,港式,114.179846,22.315967,POINT (114.179846 22.315967),九龙城区
1889,绿林甜品,深水埗元州街77-79号地下,$50以下,港式,114.163242,22.333855,POINT (114.163242 22.333855),深水埗区
18894,泰‧兰花,九龍灣宏照道38号MegaBox 11楼9号舖,$101-200,泰国菜,114.21379099999999,22.316682999999998,POINT (114.213791 22.316683),观塘区
188943,牛阵,九龍灣伟业街33号德福广场一期G99-G100号舖,$101-200,日本菜,114.21838799999999,22.318039000000002,POINT (114.218388 22.318039),观塘区
18897,三姐松记糖水,深水埗元州街151号地下,$50以下,港式,114.16566499999999,22.331463,POINT (114.165665 22.331463),深水埗区
18904,喜善中餐厅,九龍灣展贸径1号国际展贸中心3楼,$101-200,粤菜 (广东),114.208542,22.319878,POINT (114.208542 22.319878),观塘区
189078,糖水雄,佐敦渡船角文汇街30号文景楼地舖,$50以下,港式,114.170979,22.304305,POINT (114.170979 22.304305),油尖旺区
189092,Antoshimo Cafe &amp; Bakery,鑽石山龙蟠街3号荷里活广场1楼182号舖,$51-100,日本菜,114.206896,22.337995000000003,POINT (114.206896 22.337995),黄大仙区
189106,京馔,觀塘观塘道418号创纪之城五期(apm)3楼1号舖,$101-200,京川沪,114.22433500000001,22.311905,POINT (114.224335 22.311905),观塘区
18912,Simplylife Bakery Cafe,九龍塘达之路80号又一城L2层42号舖,$101-200,西式,114.17943400000001,22.334584,POINT (114.179434 22.334584),深水埗区
189255,Domon 札幌拉面,樂富联合道198号乐富广场1楼1106-1107号舖,$51-100,日本菜,114.191116,22.335144,POINT (114.191116 22.335144),九龙城区
1894,乐园,九龍城九龙城市政大厦3楼6号舖,$50以下,港式,114.18999,22.307752,POINT (114.18999 22.307752),九龙城区
189402,Horizonte Lounge,佐敦长乐街1号木的地酒店29-30楼,$51-100,西式,114.17681999999999,22.30394,POINT (114.17682 22.30394),油尖旺区
189626,蒲公英和牛专门店,觀塘开源道60号骆驼漆大厦3座1楼F室,$201-400,日本菜,114.229905,22.307298,POINT (114.229905 22.307298),观塘区
189852,Studio Caffeine,佐敦庙街284号地下,$51-100,西式,0.0,0.0,POINT (0 0),None
189915,Coffee Art,觀塘成业街7号东广场地下G46-G48舖,$51-100,意大利菜、西式,114.230958,22.307986,POINT (114.230958 22.307986),观塘区
189964,意乐餐厅 (海富商场),大角咀海富苑海富商场地下2A号舖,$51-100,港式、西式,114.168823,22.313467000000003,POINT (114.168823 22.313467),油尖旺区
189978,金拇指米线 (红磡广场),土瓜灣马头围道37-41号红磡广场地库80-81号舖,$50以下,港式、川菜 (四川),114.192764,22.307465,POINT (114.192764 22.307465),九龙城区
189985,金拇指米线 (福至工业大厦),荔枝角青山道658号福至工业大厦地下A舖,$50以下,港式、川菜 (四川),114.153006,22.335851,POINT (114.153006 22.335851),深水埗区
189999,Caliente,尖沙咀诺士佛台6号3楼,$201-400,墨西哥菜、多国菜,114.178592,22.298464000000003,POINT (114.178592 22.298464),油尖旺区
190106,泰象馆,九龍城城南道48号地下,$101-200,泰国菜,114.196004,22.326855,POINT (114.196004 22.326855),九龙城区
190127,菲尔斯曲奇专卖店,油麻地港铁油麻地站YMT20号舖,$50以下,西式,114.18055,22.303967999999998,POINT (114.18055 22.303968),油尖旺区
19014,华园美食,紅磡黄埔新村德民街31号地舖,$50以下,港式,114.19313799999999,22.303245999999998,POINT (114.193138 22.303246),九龙城区
190246,兴城风味麻辣米线,大角咀海庭道8号富荣花园地下23号舖,$50以下,川菜 (四川),114.169395,22.311081,POINT (114.169395 22.311081),油尖旺区
19029,山东饺子馆,深水埗元州街81C号舖,$50以下,鲁菜 (山东),114.167736,22.329966,POINT (114.167736 22.329966),深水埗区
190442,Food Garden ETC,荔枝角长义街9号D2 Place一期3楼303-304号舖,$101-200,西式、多国菜,114.15361499999999,22.333387,POINT (114.153615 22.333387),深水埗区
19051,信兴隆食品,土瓜灣马头围道182-186F号地下,$50以下,粤菜 (广东),114.192291,22.310017000000002,POINT (114.192291 22.310017),九龙城区
190624,脆味批,長沙灣幸福邨幸福商场地下G2号舖,$51-100,意大利菜,114.17633899999998,22.314919,POINT (114.176339 22.314919),油尖旺区
19077,空中棋园,太子西洋菜街北155号嘉康中心14楼,$51-100,西式,114.17348,22.322631,POINT (114.17348 22.322631),油尖旺区
190953,大惠旺中西美食,油麻地广东道881号祥发大厦地舖,$50以下,粤菜 (广东)、港式,114.172968,22.311814000000002,POINT (114.172968 22.311814),油尖旺区
191009,越栈越式汤粉专门店 (淘大商场),九龍灣牛头角道77号淘大商场三期地下G271-275号舖,$51-100,越南菜,114.22156399999999,22.321483999999998,POINT (114.221564 22.321484),观塘区
19102,手作之店,慈雲山毓华街23号慈云山中心3楼304A号舖,$50以下,日本菜,114.205549,22.345856,POINT (114.205549 22.345856),黄大仙区
19104,金香茅泰国菜馆,紅磡必嘉街地下90B号舖,$51-100,泰国菜,114.18795700000001,22.304862,POINT (114.187957 22.304862),九龙城区
191144,李锦基越南餐厅,何文田窝打老道65地下D舖,$51-100,越南菜,114.179569,22.314994,POINT (114.179569 22.314994),九龙城区
19120,一线轩,土瓜灣美景街67号地下,$50以下,滇菜 (云南),114.196048,22.314549,POINT (114.196048 22.314549),九龙城区
191200,成兴冰室,新蒲崗康强街32号康强楼地下17号舖,$50以下,港式,114.20126599999999,22.332079,POINT (114.201266 22.332079),黄大仙区
191249,好蔡馆,太子广东道1237号地舖,$101-200,潮州菜,114.170891,22.321316,POINT (114.170891 22.321316),油尖旺区
19148,君兰饼店,美孚港铁美孚站MEF 114号舖,$50以下,港式,0.0,0.0,POINT (0 0),None
191522,牛精皇,九龍城福佬村道60号地下,$201-400,港式,114.19263899999999,22.326879,POINT (114.192639 22.326879),九龙城区
191571,康和阁酒家,紅磡黄埔天地百宝坊(第3期)地下G25号舖,$101-200,粤菜 (广东)、港式,0.0,0.0,POINT (0 0),None
191732,鸿运烧腊美食,牛頭角牛头角道33号地舖1B,$50以下,粤菜 (广东),114.219982,22.323065,POINT (114.219982 22.323065),观塘区
191879,Caf&#233; Sausalito,深水埗大南街201号地舖,$51-100,西式,114.16774099999999,22.324754000000002,POINT (114.167741 22.324754),深水埗区
19197,又一村花园俱乐部中菜厅,九龍塘又一村高槐路7号又一村花园俱乐部2楼,$101-200,粤菜 (广东),114.17800700000001,22.328741,POINT (114.178007 22.328741),深水埗区
19217,金翠餐厅,新蒲崗爵禄街36号地下,$50以下,港式,114.200741,22.33342,POINT (114.200741 22.33342),黄大仙区
1922,彩龙皇宫大酒楼,彩虹清水湾道45号彩云商场B201号舖,$51-100,粤菜 (广东),0.0,0.0,POINT (0 0),None
19226,贵屿和记隆饼家,九龍城城南道59号地下,$50以下,潮州菜、港式,114.19579399999999,22.327278,POINT (114.195794 22.327278),九龙城区
192317,皇庭汇,大角咀海富苑海富商场1楼106号舖,$101-200,粤菜 (广东),114.168823,22.313467000000003,POINT (114.168823 22.313467),油尖旺区
19240,翠园 (德福广场),九龍灣伟业街33号德福广场1期F20号舖,$101-200,粤菜 (广东),114.21838799999999,22.318039000000002,POINT (114.218388 22.318039),观塘区
192443,争鲜外带寿司,慈雲山毓华街23号慈云山中心3楼332号舖,$50以下,日本菜,114.205549,22.345856,POINT (114.205549 22.345856),黄大仙区
192625,牛涮锅,九龍灣牛头角道77号淘大商场一期地下G131-136号舖,$201-400,日本菜,114.22156399999999,22.321483999999998,POINT (114.221564 22.321484),观塘区
19301,皇室甜品 (城南道),九龍城城南道15号,$50以下,港式,114.19573700000001,22.325884,POINT (114.195737 22.325884),九龙城区
193040,麦当劳,彩虹牛池湾坪石邨停车场地下G1号舖,$50以下,美国菜,114.21495300000001,22.332913,POINT (114.214953 22.332913),黄大仙区
193054,759车仔面,九龍灣展贸径1号国际展贸中心地下2号舖,$50以下,港式,114.208542,22.319878,POINT (114.208542 22.319878),观塘区
193068,金捞老鸭汤刺身火锅专门店,佐敦文昌街25-47号文昌楼地下41及43号舖,$201-400,港式,114.17117900000001,22.305388,POINT (114.171179 22.305388),油尖旺区
193110,客家好栈,九龍灣牛头角道77号淘大商场四期地下F229-240号舖,$101-200,客家菜,114.22156399999999,22.321483999999998,POINT (114.221564 22.321484),观塘区
193131,陈意斋,太子太子道西157号别树华轩地下3号舖,$50以下,港式,114.17366100000001,22.321139000000002,POINT (114.173661 22.321139),油尖旺区
193180,金利茶餐厅,新蒲崗康强街9号地下,$50以下,港式,114.20243500000001,22.331981,POINT (114.202435 22.331981),黄大仙区
193306,味皇,油麻地弥敦道534-538号嘉荣大厦地下3号舖,$50以下,港式,114.170658,22.327144,POINT (114.170658 22.327144),深水埗区
193672,新加坡南香风味馆,紅磡都会道6-10号置富都会8楼美食广场FC13号舖,$51-100,港式、新加坡菜,114.18818799999998,22.299988,POINT (114.188188 22.299988),油尖旺区
1937,好运印尼餐厅,觀塘通明街46号地舖,$51-100,印尼菜,114.22793100000001,22.312966,POINT (114.227931 22.312966),观塘区
193798,美味饺子店,太子大南街74号地舖,$50以下,港式,114.195528,22.325362,POINT (114.195528 22.325362),九龙城区
193847,壹火锅,旺角西洋菜街1号兆万中心16楼,$201-400,粤菜 (广东)、港式,114.175229,22.315877,POINT (114.175229 22.315877),油尖旺区
19433,大角咀麦太甜品,大角咀海辉道11号奥海城一期UG11舖,$50以下,港式,114.167259,22.314877,POINT (114.167259 22.314877),油尖旺区
19449,仟亿茶餐厅,彩虹牛池湾富池径5号,$50以下,港式,114.21495300000001,22.332913,POINT (114.214953 22.332913),黄大仙区
19456,东海堂,荔枝角长沙湾道833号长沙湾广场地下G09B1号舖,$50以下,西式,114.153465,22.334641,POINT (114.153465 22.334641),深水埗区
19458,D&#233;lifrance,荔枝角长沙湾道800号香港纱厂工业大厦一、二期地下C2D舖,$51-100,法国菜,114.15423100000001,22.335174,POINT (114.154231 22.335174),深水埗区
19509,四季煲仔饭,油麻地鸦打街46-58号,$51-100,港式,114.18055,22.303967999999998,POINT (114.18055 22.303968),油尖旺区
19510,庙街牛杂,油麻地鸦打街18号,$50以下,港式,114.17526299999999,22.30695,POINT (114.175263 22.30695),油尖旺区
1957,联兴茶餐厅,黃大仙凤凰新邨金凤街3号地下,$50以下,港式,114.202844,22.34226,POINT (114.202844 22.34226),黄大仙区
1958,联兄烧腊粥面饭店,土瓜灣美景街79号地舖,$50以下,粤菜 (广东),114.19646100000001,22.314865,POINT (114.196461 22.314865),九龙城区
19605,合兴,九龍灣启业村启业街5号熟食亭,$50以下,港式,114.213747,22.340329,POINT (114.213747 22.340329),黄大仙区
19637,明辉茶餐厅,牛頭角牛头角道33号宏光楼地下1-2号舖,$50以下,港式,114.220202,22.323284,POINT (114.220202 22.323284),观塘区
19639,文记传统车仔面茶餐厅,九龍灣牛头角道55号利基大厦地下,$50以下,港式,114.220078,22.322581,POINT (114.220078 22.322581),观塘区
19651,唐风小筑小食屋,鑽石山凤德道60号南莲园池,$50以下,港式,114.21463,22.333395,POINT (114.21463 22.333395),黄大仙区
19654,奇华饼家,鑽石山龙蟠街3号荷里活广场2楼226号,$50以下,港式,114.206896,22.337995000000003,POINT (114.206896 22.337995),黄大仙区
19655,东海堂,鑽石山龙蟠街3号荷里活广场1楼145号舖,$50以下,西式,114.206896,22.337995000000003,POINT (114.206896 22.337995),黄大仙区
19663,圣安娜饼屋,鑽石山港铁钻石山站15号舖,$50以下,港式,114.206896,22.337995000000003,POINT (114.206896 22.337995),黄大仙区
19664,宝福餐厅,彩虹牛池湾龙池径牛池湾西村115A地下,$50以下,港式,114.212501,22.334210000000002,POINT (114.212501 22.33421),黄大仙区
19665,许记车仔面,彩虹牛池湾龙池径,$50以下,港式,114.21495300000001,22.332913,POINT (114.214953 22.332913),黄大仙区
19674,椰林阁餐厅,九龍灣宏光道80号丽晶商场地下,$51-100,多国菜,114.21041899999999,22.326710000000002,POINT (114.210419 22.32671),观塘区
19682,东海堂,九龍塘港铁九龙塘站1号舖,$50以下,西式,114.180807,22.334154,POINT (114.180807 22.334154),深水埗区
19687,荣华饼家,九龍塘港铁九龙塘站大堂13号舖,$50以下,港式,0.0,0.0,POINT (0 0),None
19715,新光海鲜酒家,鑽石山龙蟠苑商场201号舖,$101-200,粤菜 (广东),114.206896,22.337995000000003,POINT (114.206896 22.337995),黄大仙区
19716,好食店,黃大仙崇华街4号 新宁楼地下,$50以下,港式,0.0,0.0,POINT (0 0),None
19720,梅园餐室,黃大仙凤凰新邨银凤街24号舖,$50以下,港式,114.202992,22.341798,POINT (114.202992 22.341798),黄大仙区
19723,金宝美食,黃大仙凤凰新村银凤街6号,$50以下,港式,114.202959,22.341327,POINT (114.202959 22.341327),黄大仙区
19730,友记小食店,黃大仙凤凰新邨环凤街13-1号A,$50以下,港式,114.203124,22.341351,POINT (114.203124 22.341351),黄大仙区
19736,海德餐厅,黃大仙凤凰新邨蒲岗村道71号,$50以下,港式,114.203576,22.341351,POINT (114.203576 22.341351),黄大仙区
19737,亲亲甜品屋,黃大仙凤凰新邨蒲岗村道33号,$50以下,港式,114.20344899999999,22.340642000000003,POINT (114.203449 22.340642),黄大仙区
19741,三井饱饼专门店,黃大仙凤凰新邨双凤街24号,$50以下,港式,0.0,0.0,POINT (0 0),None
19744,必胜客,黃大仙飞凤街23号盈利大厦地下5-6舖,$101-200,意大利菜,0.0,0.0,POINT (0 0),None
19745,泉成茶餐厅,黃大仙龙翔道120号新光中心二座地下,$50以下,港式,114.201474,22.339198,POINT (114.201474 22.339198),黄大仙区
19749,宝城美食店,紅磡马头围道37号红磡广场地库2-3号,$50以下,港式,114.192649,22.307010000000002,POINT (114.192649 22.30701),九龙城区
19750,英王面包店,黃大仙正德街103号黄大仙中心南馆地下G3A号舖,$50以下,西式,114.19726000000001,22.339238,POINT (114.19726 22.339238),黄大仙区
19783,兴隆泰国美食,九龍城城南道18号,$101-200,泰国菜,114.195958,22.325925,POINT (114.195958 22.325925),九龙城区
19785,鸿陞小食,九龍城城南道6-6A号地下,$51-100,泰国菜,114.19593300000001,22.325620999999998,POINT (114.195933 22.325621),九龙城区
19803,龙城金记海鲜火锅,九龍城南角道71号地舖,$101-200,粤菜 (广东),114.19463700000001,22.327648999999997,POINT (114.194637 22.327649),九龙城区
19809,泰式美食2,九龍城南角道27号,$101-200,泰国菜,114.19467399999999,22.326501999999998,POINT (114.194674 22.326502),九龙城区
19810,新金华烧味卤水专门店,九龍城衙前围道80号地下C舖,$50以下,粤菜 (广东),114.194827,22.326143,POINT (114.194827 22.326143),九龙城区
19812,成发潮州菜馆,九龍城龙岗道21号地舖,$51-100,潮州菜,114.195177,22.325828,POINT (114.195177 22.325828),九龙城区
19828,麻辣王,佐敦白加士街90号地下,$50以下,川菜 (四川),114.175735,22.303435999999998,POINT (114.175735 22.303436),油尖旺区
19833,金宝泰国菜馆,九龍城衙前塱道25号,$101-200,泰国菜,114.19474699999999,22.325996,POINT (114.194747 22.325996),九龙城区
19834,金宝越南餐馆,九龍城衙前塱道23号,$101-200,越南菜,114.194073,22.325807,POINT (114.194073 22.325807),九龙城区
19852,云吞生面食,九龍城狮子石道35号,$50以下,港式,114.192968,22.325855999999998,POINT (114.192968 22.325856),九龙城区
1988,马仔粉面,九龍城九龙城市政大厦3楼2号舖,$101-200,粤菜 (广东),114.18999,22.307752,POINT (114.18999 22.307752),九龙城区
19889,麦当劳,"土瓜灣真善美邨富宁街地下5, 7, 9号舖",$50以下,美国菜,114.192476,22.32209,POINT (114.192476 22.32209),九龙城区
19896,美心Food2,九龍灣伟业街33号德福广场一期P17号舖,$50以下,多国菜,114.21838799999999,22.318039000000002,POINT (114.218388 22.318039),观塘区
19929,大家乐,彩虹九龙清水湾道8号汇八坊地库二层B201A舖,$50以下,港式,114.2147,22.331198999999998,POINT (114.2147 22.331199),观塘区
19935,权记粉面茶餐厅,太子通菜街193号地下,$50以下,港式,114.174722,22.320025,POINT (114.174722 22.320025),油尖旺区
19963,All Night Long,尖沙咀诺士佛台9号地下,$101-200,西式,114.178807,22.298551,POINT (114.178807 22.298551),油尖旺区
19973,春润堂,深水埗大埔道14-16号华都大厦2号舖,$50以下,港式,114.17276100000001,22.324182,POINT (114.172761 22.324182),深水埗区
20029,Taste,九龍塘达之路80号又一城MTR层MTR05号舖,$50以下,港式,114.17943400000001,22.334584,POINT (114.179434 22.334584),深水埗区
2009,文记粉面茶餐厅,慈雲山毓华里31号D地下,$50以下,港式,114.20631100000001,22.344014,POINT (114.206311 22.344014),黄大仙区
2014,万宝素食馆,何文田窝打老道67号地下至楼,$50以下,粤菜 (广东),114.179759,22.315184,POINT (114.179759 22.315184),九龙城区
20170,天澄阁中菜厅,紅磡红乐道12号海韵轩海景酒店3楼,$101-200,粤菜 (广东),114.18983300000001,22.299879,POINT (114.189833 22.299879),油尖旺区
20172,刘森记面家,深水埗褔荣街80号地舖,$50以下,港式,114.163242,22.333855,POINT (114.163242 22.333855),深水埗区
20198,J &amp; V Mini Kitchen,新蒲崗景福街 71 号,$50以下,西式,114.20221000000001,22.331582,POINT (114.20221 22.331582),黄大仙区
20199,永生茶餐厅,新蒲崗景福街 45 号,$50以下,港式,114.201664,22.331319,POINT (114.201664 22.331319),黄大仙区
20201,北海道面包店,新蒲崗宁远街3-23号越秀广场地下,$50以下,港式,114.20055,22.331338,POINT (114.20055 22.331338),黄大仙区
20204,手拉面小厨,新蒲崗衍庆街48号衍庆大厦地下,$51-100,京川沪,114.199541,22.332720000000002,POINT (114.199541 22.33272),黄大仙区
20205,金屋面包西饼,新蒲崗衍庆街44号地下,$50以下,港式,114.19971799999999,22.332824,POINT (114.199718 22.332824),黄大仙区
20209,顺景餐厅,新蒲崗衍庆街23号地下,$50以下,港式,114.199951,22.332703,POINT (114.199951 22.332703),黄大仙区
20213,肥仔铭茶餐厅,新蒲崗锦荣街9号地舖,$50以下,港式,0.0,0.0,POINT (0 0),None
20217,陈仪兴饭店,新蒲崗崇龄街 40 号地下,$101-200,潮州菜、粤菜 (广东),114.20046599999999,22.332418,POINT (114.200466 22.332418),黄大仙区
20226,金宝冰厅,新蒲崗康强街53号地下,$50以下,港式,114.20149099999999,22.331544,POINT (114.201491 22.331544),黄大仙区
20235,辉记云吞面,新蒲崗大有街34号新科技广场地下15号舖,$50以下,港式,114.202168,22.333654,POINT (114.202168 22.333654),黄大仙区
20237,泰力食堂,新蒲崗大有街32号泰力工业中心地下,$50以下,港式,114.202352,22.33418,POINT (114.202352 22.33418),黄大仙区
20263,新明记肥牛猪骨煲,佐敦炮台街2-8号地下,$101-200,港式,114.173845,22.303632999999998,POINT (114.173845 22.303633),油尖旺区
20280,有晖车仔面餐厅,新蒲崗彩虹道242号采颐花园商场地下,$50以下,港式,114.207223,22.334336999999998,POINT (114.207223 22.334337),黄大仙区
20281,德记粉面牛什专家,新蒲崗彩虹道242号采颐花园商场地下,$50以下,港式,114.207223,22.334336999999998,POINT (114.207223 22.334337),黄大仙区
20313,必胜客,新蒲崗彩虹道242号采颐花园地下646-648及650号舖,$101-200,意大利菜,114.207872,22.334454,POINT (114.207872 22.334454),黄大仙区
20331,新昌烧腊饭店,慈雲山慈华里14号地下,$50以下,粤菜 (广东),114.20631000000002,22.344189,POINT (114.20631 22.344189),黄大仙区
20334,嘉丰茶餐厅,慈雲山毓华里53号地下,$50以下,港式,114.20723899999999,22.344094000000002,POINT (114.207239 22.344094),黄大仙区
20335,叙苑粉面茶餐厅,慈雲山毓华街72号万年戏院大厦地下,$50以下,港式,114.20688799999999,22.344063000000002,POINT (114.206888 22.344063),黄大仙区
20339,鸿福堂,慈雲山毓华街23号慈云山中心4楼409号舖,$50以下,粤菜 (广东),114.205549,22.345856,POINT (114.205549 22.345856),黄大仙区
20361,上海小南国,九龍灣宏照道38号MegaBox 6楼2号舖,$201-400,沪菜 (上海),114.21379099999999,22.316682999999998,POINT (114.213791 22.316683),观塘区
20379,德利餐厅,彩虹牛池湾街市熟食中心2楼4-7号舖,$50以下,港式,114.159508,22.246471,POINT (114.159508 22.246471),南区
20445,蛇王业,深水埗南昌街139号地下,$50以下,粤菜 (广东),114.168322,22.326794,POINT (114.168322 22.326794),深水埗区
20512,恒益商店,慈雲山沙田坳道狮子山1-3号舖,$50以下,港式,114.20790900000001,22.351578,POINT (114.207909 22.351578),黄大仙区
20523,三德素食馆,佐敦弥敦道233-239号佐敦荟地下及4楼,$101-200,粤菜 (广东),114.176165,22.302144000000002,POINT (114.176165 22.302144),油尖旺区
20525,富城火锅海鲜酒家,太子运动场道21-23号地下,$101-200,粤菜 (广东),114.195528,22.325362,POINT (114.195528 22.325362),九龙城区
2053,美心皇宫 (德福广场),九龍灣伟业街33号德福广场一期G54号舖,$101-200,粤菜 (广东),114.21838799999999,22.318039000000002,POINT (114.218388 22.318039),观塘区
20539,祥景茶餐厅,荔枝角深旺道海丽商场地下,$50以下,港式,0.0,0.0,POINT (0 0),None
2062,美心MX,黃大仙竹园南村竹园中心1楼,$50以下,港式,114.19892800000001,22.342655999999998,POINT (114.198928 22.342656),黄大仙区
206314,莆田,鑽石山龙蟠街3号荷里活广场2楼214舖,$101-200,闽菜 (福建),114.206896,22.337995000000003,POINT (114.206896 22.337995),黄大仙区
20637,鸿福堂,樂富港铁乐富站LOF7号舖,$50以下,粤菜 (广东),0.0,0.0,POINT (0 0),None
20638,鸿福堂,鑽石山港铁钻石山站9号舖,$50以下,粤菜 (广东),114.206896,22.337995000000003,POINT (114.206896 22.337995),黄大仙区
20640,鸿福堂,牛頭角港铁牛头角站11号舖,$50以下,粤菜 (广东),114.22381599999999,22.312761,POINT (114.223816 22.312761),观塘区
20664,鸿福堂,荔枝角港铁荔枝角站14号舖,$50以下,粤菜 (广东),0.0,0.0,POINT (0 0),None
20669,荣华饼家,美孚港铁美孚站7号舖,$50以下,港式,0.0,0.0,POINT (0 0),None
20690,必胜客,何文田佛光街80号何文田广场地下6号舖,$101-200,意大利菜,114.1866,22.313828,POINT (114.1866 22.313828),九龙城区
21046,健康工房,九龍塘港铁九龙塘站KOT14号舖,$50以下,港式,114.180807,22.334154,POINT (114.180807 22.334154),深水埗区
21050,健康工房,黃大仙港铁黄大仙站大堂WTS 7-8号舖,$50以下,港式,0.0,0.0,POINT (0 0),None
21066,蛇王协,深水埗鸭寮街170号地下,$50以下,粤菜 (广东),114.167704,22.327025,POINT (114.167704 22.327025),深水埗区
21074,东京面包饼食,土瓜灣谭公道57号地下,$50以下,港式,114.19316299999998,22.31962,POINT (114.193163 22.31962),九龙城区
211,雅敍阁西餐厅,太子荔枝角道22号旺角维景酒店阁楼,$201-400,西式,114.172684,22.320347,POINT (114.172684 22.320347),油尖旺区
21120,新兴发粥店,土瓜灣马头角道5号,$50以下,港式,114.19358500000001,22.31954,POINT (114.193585 22.31954),九龙城区
212,大家乐,黃大仙正德街103号黄大仙中心南馆UG楼UG5-UG9号舖,$50以下,港式,114.19726000000001,22.339238,POINT (114.19726 22.339238),黄大仙区
21224,天马茶餐厅,慈雲山嘉喜大厦22号地下,$50以下,港式,114.20790900000001,22.351578,POINT (114.207909 22.351578),黄大仙区
21266,荔苑茶餐厅,美孚景荔径8号盈晖台家居城1楼116号舖,$50以下,港式,114.142402,22.339,POINT (114.142402 22.339),深水埗区
21303,囍囍小食部,土瓜灣天光道50号地下,$50以下,港式,114.19218400000001,22.317162,POINT (114.192184 22.317162),九龙城区
21442,明爱白英奇宾馆餐厅,油麻地石壁道4号明爱白英奇宾馆6楼,$50以下,西式,114.176777,22.308199,POINT (114.176777 22.308199),油尖旺区
21504,君兰饼店,九龍塘港铁九龙塘站KOT 207号舖,$50以下,港式,114.180807,22.334154,POINT (114.180807 22.334154),深水埗区
2152,麦当劳,"九龍城贾炳达道128号九龙城广场地下上层UG02B, UG03 & UG05号舖",$50以下,美国菜,114.192823,22.328094,POINT (114.192823 22.328094),九龙城区
2159,麦当劳,九龍灣牛头角道77号淘大花园商场二期地下G246-253号舖,$50以下,美国菜,114.22090700000001,22.321123999999998,POINT (114.220907 22.321124),观塘区
21603,云吞成面食,油麻地吴松街100号,$50以下,港式,114.175225,22.303203,POINT (114.175225 22.303203),油尖旺区
21609,庙街香辣蟹,油麻地庙街210号地下,$101-200,港式,114.18055,22.303967999999998,POINT (114.18055 22.303968),油尖旺区
21617,味皇餐厅小厨,油麻地弥敦道495A-497号地下,$50以下,港式,114.18055,22.303967999999998,POINT (114.18055 22.303968),油尖旺区
21626,莉莎餐厅,何文田胜利道,,港式,114.179617,22.316339000000003,POINT (114.179617 22.316339),九龙城区
21653,海港酒家,太子弥敦道750号始创中心4楼,$101-200,粤菜 (广东),114.173952,22.319481,POINT (114.173952 22.319481),油尖旺区
21688,海洋超级渔港 (深海龙趸专门店),佐敦佐敦道23-29号新宝广场3楼,$101-200,粤菜 (广东),114.175795,22.302806,POINT (114.175795 22.302806),油尖旺区
21751,和记海鲜饭店,佐敦渡船角文英街9-16号地舖,$101-200,港式,114.171677,22.30423,POINT (114.171677 22.30423),油尖旺区
2180,麦当劳,何文田窝打老道57-59号柏龄大厦地下B至D舖及1楼,$50以下,美国菜,114.17878300000001,22.313962,POINT (114.178783 22.313962),油尖旺区
21812,善福堂,美孚美孚新邨第4期商场92号B舖,$50以下,粤菜 (广东),114.113391,22.375633999999998,POINT (114.113391 22.375634),荃湾区
21858,大家乐,太子太子道西109-118号康龄大厦地下A至B舖,$50以下,港式,114.17979199999999,22.321741,POINT (114.179792 22.321741),九龙城区
21876,丰华饮食中心,荔枝角青山道554号,$50以下,港式,114.15540800000001,22.336537,POINT (114.155408 22.336537),深水埗区
21893,醉琼楼,長沙灣元州街320A号地下,$51-100,港式,114.16231100000002,22.334336999999998,POINT (114.162311 22.334337),深水埗区
21897,麦当劳,長沙灣元州街213号美居中心地下9-19号及23-26号舖,$50以下,美国菜,114.169573,22.329383,POINT (114.169573 22.329383),深水埗区
21900,金园粉面店,長沙灣元州街316号地下,$50以下,港式,114.16278799999999,22.334052,POINT (114.162788 22.334052),深水埗区
2197,麦当劳,油麻地众坊街3号骏发花园G2号舖,$50以下,美国菜,114.17330700000001,22.308104999999998,POINT (114.173307 22.308105),油尖旺区
21993,金源烧腊茶餐厅,紅磡黄埔街20号地下,$50以下,港式,114.189646,22.303376,POINT (114.189646 22.303376),九龙城区
2208,麦当劳,紅磡黄埔天地聚宝坊(第11期)地下G7A号舖及地库B12-14号舖,$50以下,美国菜,0.0,0.0,POINT (0 0),None
221,大家乐,九龍灣牛头角道77号淘大商场一期地下G163-174号舖,$50以下,港式,114.22156399999999,22.321483999999998,POINT (114.221564 22.321484),观塘区
22100,Yamm,"尖沙咀弥敦道118-130号Mira Place, The Mira Hong Kong 地下大堂",$401-800,多国菜,114.177397,22.297522,POINT (114.177397 22.297522),油尖旺区
22116,点心仔,美孚景荔径盈晖台,$50以下,粤菜 (广东)、港式,114.14255700000001,22.339013,POINT (114.142557 22.339013),深水埗区
22131,新强记烧腊饭店,佐敦上海街113号地下,$51-100,港式,114.174254,22.303273,POINT (114.174254 22.303273),油尖旺区
22139,星河餐厅,深水埗大南街374号,$51-100,港式,114.164951,22.327143,POINT (114.164951 22.327143),深水埗区
22145,麦当劳,美孚美孚新邨美孚广场地下G03舖及1楼119号舖,$50以下,美国菜,0.0,0.0,POINT (0 0),None
22193,奇华饼家,荔枝角青山道666号,$50以下,港式,114.152631,22.335903,POINT (114.152631 22.335903),深水埗区
2220,麦当劳,美孚美孚新邨第七期万事达广场地下N60A号舖,$50以下,美国菜,114.143977,22.335285,POINT (114.143977 22.335285),深水埗区
22201,包饺店,美孚美孚新邨第4期96号舖,$50以下,港式,0.0,0.0,POINT (0 0),None
22293,晶辉饭店,大角咀角祥街31-33号地下,$51-100,粤菜 (广东),114.16879899999999,22.317055,POINT (114.168799 22.317055),油尖旺区
22297,品坊,佐敦弥敦道348号香港九龙诺富特酒店1楼,$201-400,多国菜,114.17711000000001,22.304469,POINT (114.17711 22.304469),油尖旺区
22331,联合粉面小食,油麻地宁波街,$50以下,港式,114.18055,22.303967999999998,POINT (114.18055 22.303968),油尖旺区
22339,兴记粥粉面,油麻地新填地街13A1地下,$50以下,港式,114.18055,22.303967999999998,POINT (114.18055 22.303968),油尖旺区
22342,大家食 (永星里),油麻地永星里1G-1H号地舖,$50以下,港式,114.18055,22.303967999999998,POINT (114.18055 22.303968),油尖旺区
22344,新庆粥店,油麻地广东道835-845号地下H&I号铺,$50以下,港式,114.18055,22.303967999999998,POINT (114.18055 22.303968),油尖旺区
22345,百乐快餐店,油麻地东方街3号,$50以下,港式,114.176055,22.311073999999998,POINT (114.176055 22.311074),油尖旺区
22392,元合,九龍城衙前塱道72号,$50以下,潮州菜,114.19436,22.327422,POINT (114.19436 22.327422),九龙城区
2249,麦当劳,黃大仙竹园南邨竹园商场S219A号舖,$50以下,美国菜,0.0,0.0,POINT (0 0),None
2251,麦当劳,樂富联合道198号乐富广场一期地库1层7号舖,$50以下,美国菜,114.191116,22.335144,POINT (114.191116 22.335144),九龙城区
2252,麦当劳,慈雲山毓华街23号慈云山中心3楼333号舖,$50以下,美国菜,114.205549,22.345856,POINT (114.205549 22.345856),黄大仙区
2253,麦当劳,慈雲山毓华街68号万年戏院大厦地下,$50以下,美国菜,114.20688799999999,22.344063000000002,POINT (114.206888 22.344063),黄大仙区
2254,麦当劳,新蒲崗宁远街3-23号越秀广场地下G02-G05舖,$50以下,美国菜,114.20055,22.331338,POINT (114.20055 22.331338),黄大仙区
2279,麦当劳,鑽石山龙蟠街3号荷里活广场2楼216号舖,$50以下,美国菜,114.206896,22.337995000000003,POINT (114.206896 22.337995),黄大仙区
22799,甜品森林,美孚美孚新邨六期恒柏街2-8号N29C1舖,$50以下,港式,0.0,0.0,POINT (0 0),None
2280,麦当劳,鑽石山凤德邨凤德商场202A号舖,$50以下,美国菜,114.20488700000001,22.340321,POINT (114.204887 22.340321),黄大仙区
22803,万事迖小食,美孚美孚新村万事达广场,,港式,114.143977,22.335285,POINT (114.143977 22.335285),深水埗区
22811,桃源轩,油麻地弥敦道488号地舖,$51-100,港式、台湾菜,114.176071,22.30874,POINT (114.176071 22.30874),油尖旺区
22822,鸣门鱼汤面亭,何文田胜利道4号地下,$51-100,日本菜,114.179906,22.315838,POINT (114.179906 22.315838),九龙城区
2291,上海美味斋饭店,黃大仙凤凰新邨环凤街19号地下,$51-100,沪菜 (上海),114.203174,22.341607,POINT (114.203174 22.341607),黄大仙区
23058,垣记鸡蛋卷,土瓜灣马头围木厂街38号,$50以下,港式,114.19546100000001,22.319809,POINT (114.195461 22.319809),九龙城区
2310,美都餐室,油麻地庙街63号地下,$51-100,港式,114.18055,22.303967999999998,POINT (114.18055 22.303968),油尖旺区
23179,精记蛋卷,長沙灣元洲街340号地下,$50以下,港式,114.161671,22.334923999999997,POINT (114.161671 22.334924),深水埗区
2327,明记粉面茶餐厅,黃大仙凤凰新邨环凤街24-28号地下,$50以下,港式,114.203275,22.340916,POINT (114.203275 22.340916),黄大仙区
23306,华园饺子馆,何文田胜利道14号舖,$50以下,粤菜 (广东),114.17971000000001,22.316257,POINT (114.17971 22.316257),九龙城区
23308,孖啡,旺角弥敦道577号高氏大楼4楼,$101-200,西式,114.174929,22.312438,POINT (114.174929 22.312438),油尖旺区
23348,宾墟餐厅,長沙灣幸福村幸福商场地下1号舖,$51-100,港式,114.164748,22.329622,POINT (114.164748 22.329622),深水埗区
23368,波仔,黃大仙竹园南村商场1楼S104舖,$50以下,港式,0.0,0.0,POINT (0 0),None
23393,林记小食,紅磡差馆里 21 号,$50以下,港式,114.19091399999999,22.304897,POINT (114.190914 22.304897),九龙城区
23420,满堂乐沪京风味,紅磡明安街4号,$50以下,沪菜 (上海),114.190621,22.303492000000002,POINT (114.190621 22.303492),九龙城区
23462,Mamma Mia Gelato,鑽石山龙蟠街3号荷里活广场3楼,$50以下,意大利菜,114.206896,22.337995000000003,POINT (114.206896 22.337995),黄大仙区
23467,樽櫍酒吧,美孚兰秀道17A美孚新邨地下,$51-100,西式、多国菜,114.145073,22.33588,POINT (114.145073 22.33588),深水埗区
2349,礼三井日本料理,油麻地弥敦道458号地下,$51-100,日本菜,114.176258,22.307755,POINT (114.176258 22.307755),油尖旺区
23544,红磡鸡蛋仔,紅磡大沽街宝利阁2号舖,$50以下,港式,114.19115,22.303814000000003,POINT (114.19115 22.303814),九龙城区
23567,星巴克咖啡,紅磡黄埔天地享膳坊(第4期) 地下G5号舖,$50以下,美国菜,0.0,0.0,POINT (0 0),None
2357,好彩海鲜酒家,太子弥敦道760号联合广场3楼,$101-200,粤菜 (广东),114.173538,22.320704,POINT (114.173538 22.320704),油尖旺区
23624,板长寿司,觀塘观塘道418号创纪之城五期(apm)UC层,$101-200,日本菜,114.22433500000001,22.311905,POINT (114.224335 22.311905),观塘区
23629,禾味家,慈雲山慈正村慈正商场一期地下2号舖,$50以下,港式,114.20790900000001,22.351578,POINT (114.207909 22.351578),黄大仙区
23638,美兴烧腊,美孚美孚新邨吉利径11号48B,$50以下,港式,0.0,0.0,POINT (0 0),None
23659,香港肠粉皇,土瓜灣谭公道98号兆丰阁地下1号舖,$50以下,港式,114.193702,22.320183,POINT (114.193702 22.320183),九龙城区
23673,海记合桃坊甜品,太子西洋菜南街232号,$50以下,港式,114.17446699999999,22.319952999999998,POINT (114.174467 22.319953),油尖旺区
2368,满胡茶餐厅,彩虹牛池湾金池径 3 号地下,$50以下,港式,114.21495300000001,22.332913,POINT (114.214953 22.332913),黄大仙区
23680,东海堂,樂富港铁乐富站LOF8号舖,$50以下,西式,0.0,0.0,POINT (0 0),None
25247,Jag - 曼克顿山会所餐厅,荔枝角宝轮街1号曼克顿山会所5楼,$101-200,多国菜,114.14782,22.333238,POINT (114.14782 22.333238),深水埗区
25265,休闲咖啡,油麻地众坊街59号C号舖,$50以下,法国菜,114.174603,22.30738,POINT (114.174603 22.30738),油尖旺区
